[
  {
    "name_pl": "Abanotubani",
    "slug": "abanotubani",
    "url": "/pl/places-to-go/tbilisi/abanotubani/",
    "lat": 41.6882447,
    "lng": 44.8112422,
    "type": "Attraction",
    "city": "tbilisi"
  },
  {
    "name_pl": "Kronika Gruzji",
    "slug": "chronicle-of-georgia",
    "url": "/pl/places-to-go/tbilisi/chronicle-of-georgia/",
    "lat": 41.7705720151069,
    "lng": 44.8104371811384,
    "type": "Attraction",
    "city": "tbilisi"
  },
  {
    "name_pl": "Katedra Sioni",
    "slug": "sioni-cathedral",
    "url": "/pl/places-to-go/tbilisi/sioni-cathedral/",
    "lat": 41.6913818999871,
    "lng": 44.8075054559235,
    "type": "Attraction",
    "city": "tbilisi"
  },
  {
    "name_pl": "Katedra Sameba",
    "slug": "sameba-cathedral",
    "url": "/pl/places-to-go/tbilisi/sameba-cathedral/",
    "lat": 41.6975599737692,
    "lng": 44.8165094448149,
    "type": "Attraction",
    "city": "tbilisi"
  },
  {
    "name_pl": "Plac Meidani",
    "slug": "meidani-square",
    "url": "/pl/places-to-go/tbilisi/meidani-square/",
    "lat": 41.6899594447013,
    "lng": 44.8091015997632,
    "type": "Attraction",
    "city": "tbilisi"
  },
  {
    "name_pl": "Kąpiele Siarkowe",
    "slug": "sulfur-baths",
    "url": "/pl/places-to-go/tbilisi/sulfur-baths/",
    "lat": 41.6894046510474,
    "lng": 44.8102092742919,
    "type": "Attraction",
    "city": "tbilisi"
  },
  {
    "name_pl": "Twierdza Narikala",
    "slug": "narikala-fortress",
    "url": "/pl/places-to-go/tbilisi/narikala-fortress/",
    "lat": 41.6876792321519,
    "lng": 44.8089413519385,
    "type": "Attraction",
    "city": "tbilisi"
  },
  {
    "name_pl": "Most Pokoju",
    "slug": "bridge-of-peace",
    "url": "/pl/places-to-go/tbilisi/bridge-of-peace/",
    "lat": 41.6924936,
    "lng": 44.8078656,
    "type": "Attraction",
    "city": "tbilisi"
  },
  {
    "name_pl": "Park Rike",
    "slug": "rike-park",
    "url": "/pl/places-to-go/tbilisi/rike-park/",
    "lat": 41.6922984218965,
    "lng": 44.8054427698363,
    "type": "Attraction",
    "city": "tbilisi"
  },
  {
    "name_pl": "Ogród Botaniczny w Tbilisi",
    "slug": "botanical-garden",
    "url": "/pl/places-to-go/tbilisi/botanical-garden/",
    "lat": 41.6870117,
    "lng": 44.8140488,
    "type": "Attraction",
    "city": "tbilisi"
  },
  {
    "name_pl": "Kolumna Metechi",
    "slug": "metekhi-church",
    "url": "/pl/places-to-go/tbilisi/metekhi-church/",
    "lat": 41.6908138,
    "lng": 44.8122304,
    "type": "Attraction",
    "city": "tbilisi"
  },
  {
    "name_pl": "Park Mtatsminda",
    "slug": "mtatsminda-park",
    "url": "/pl/places-to-go/tbilisi/mtatsminda-park/",
    "lat": 41.6940316888019,
    "lng": 44.7830741025791,
    "type": "Attraction",
    "city": "tbilisi"
  },
  {
    "name_pl": "Plac Wolności",
    "slug": "freedom-square",
    "url": "/pl/places-to-go/tbilisi/freedom-square/",
    "lat": 41.6935006380908,
    "lng": 44.8010254423654,
    "type": "Attraction",
    "city": "tbilisi"
  },
  {
    "name_pl": "Ulica Szardeni",
    "slug": "shardeni-street",
    "url": "/pl/places-to-go/tbilisi/shardeni-street/",
    "lat": 41.6909439,
    "lng": 44.8089312,
    "type": "Attraction",
    "city": "tbilisi"
  },
  {
    "name_pl": "Muzeum Narodowe Gruzji",
    "slug": "national-museum",
    "url": "/pl/places-to-go/tbilisi/national-museum/",
    "lat": 41.6972066,
    "lng": 44.8008912,
    "type": "Attraction",
    "city": "tbilisi"
  },
  {
    "name_pl": "Klasztor Dawid Gareja",
    "slug": "davit-gareja",
    "url": "/pl/places-to-go/tbilisi/davit-gareja/",
    "lat": 41.4503483,
    "lng": 45.3735946,
    "type": "Attraction",
    "city": "tbilisi"
  },
  {
    "name_pl": "Jezioro Żółwi (Turtle Lake)",
    "slug": "turtle-lake",
    "url": "/pl/places-to-go/tbilisi/turtle-lake/",
    "lat": 41.698867,
    "lng": 44.7569652,
    "type": "Attraction",
    "city": "tbilisi"
  },
  {
    "name_pl": "Tbilisi",
    "slug": "tbilisi",
    "url": "/pl/places-to-go/tbilisi/",
    "lat": 41.6938897,
    "lng": 44.8015072,
    "type": "Place",
    "city": "tbilisi"
  },
  {
    "name_pl": "Mtskheta",
    "slug": "mtskheta",
    "url": "/pl/places-to-go/mtskheta-mtianeti/mtskheta/",
    "lat": 41.845021,
    "lng": 44.720642,
    "type": "Place",
    "city": "mtskheta-mtianeti"
  },
  {
    "name_pl": "Jvari",
    "slug": "jvari-monastery",
    "url": "/pl/places-to-go/mtskheta-mtianeti/jvari-monastery/",
    "lat": 41.838227,
    "lng": 44.733116,
    "type": "Attraction",
    "city": "mtskheta-mtianeti"
  },
  {
    "name_pl": "Svetitskhoveli",
    "slug": "svetitskhoveli",
    "url": "/pl/places-to-go/mtskheta-mtianeti/svetitskhoveli/",
    "lat": 41.8422584,
    "lng": 44.7208824,
    "type": "Attraction",
    "city": "mtskheta-mtianeti"
  },
  {
    "name_pl": "Ananuri",
    "slug": "ananuri",
    "url": "/pl/places-to-go/mtskheta-mtianeti/ananuri/",
    "lat": 42.1636084,
    "lng": 44.7024904,
    "type": "Attraction",
    "city": "mtskheta-mtianeti"
  },
  {
    "name_pl": "Kazbegi",
    "slug": "kazbegi",
    "url": "/pl/places-to-go/mtskheta-mtianeti/kazbegi/",
    "lat": 42.6591763,
    "lng": 44.6385744,
    "type": "Place",
    "city": "mtskheta-mtianeti"
  },
  {
    "name_pl": "Kościół Trójcy Świętej w Gergeti",
    "slug": "gergeti-trinity-church",
    "url": "/pl/places-to-go/mtskheta-mtianeti/gergeti-trinity-church/",
    "lat": 42.6625131,
    "lng": 44.6198826,
    "type": "Attraction",
    "city": "mtskheta-mtianeti"
  },
  {
    "name_pl": "Gudauri",
    "slug": "gudauri",
    "url": "/pl/places-to-go/mtskheta-mtianeti/gudauri/",
    "lat": 42.4548,
    "lng": 44.4708,
    "type": "Place",
    "city": "mtskheta-mtianeti"
  },
  {
    "name_pl": "Przełęcz Krzyżowa",
    "slug": "cross-pass",
    "url": "/pl/places-to-go/mtskheta-mtianeti/cross-pass/",
    "lat": 42.5028008595109,
    "lng": 44.4542862325546,
    "type": "Attraction",
    "city": "mtskheta-mtianeti"
  },
  {
    "name_pl": "Pomnik Przyjaźni Rosyjsko-Gruzińskiej",
    "slug": "russia-georgia-friendship-monument",
    "url": "/pl/places-to-go/mtskheta-mtianeti/russia-georgia-friendship-monument/",
    "lat": 42.4905786,
    "lng": 44.4547748,
    "type": "Attraction",
    "city": "mtskheta-mtianeti"
  },
  {
    "name_pl": "Sno",
    "slug": "sno",
    "url": "/pl/places-to-go/mtskheta-mtianeti/sno/",
    "lat": 42.604994,
    "lng": 44.631988,
    "type": "Place",
    "city": "mtskheta-mtianeti"
  },
  {
    "name_pl": "Szatili",
    "slug": "shatili",
    "url": "/pl/places-to-go/mtskheta-mtianeti/shatili/",
    "lat": 42.6603965,
    "lng": 45.1648965,
    "type": "Attraction",
    "city": "mtskheta-mtianeti"
  },
  {
    "name_pl": "Sighnaghi",
    "slug": "signagi",
    "url": "/pl/places-to-go/kakheti/signagi/",
    "lat": 41.6207695,
    "lng": 45.9179135,
    "type": "Place",
    "city": "kakheti"
  },
  {
    "name_pl": "Telavi",
    "slug": "telavi",
    "url": "/pl/places-to-go/kakheti/telavi/",
    "lat": 41.919,
    "lng": 45.473,
    "type": "Place",
    "city": "kakheti"
  },
  {
    "name_pl": "Klasztor Alaverdi",
    "slug": "alaverdi-monastery",
    "url": "/pl/places-to-go/kakheti/alaverdi-monastery/",
    "lat": 41.9728764,
    "lng": 45.3765336,
    "type": "Attraction",
    "city": "kakheti"
  },
  {
    "name_pl": "Klasztor Bodbe",
    "slug": "bodbe-monastery",
    "url": "/pl/places-to-go/kakheti/bodbe-monastery/",
    "lat": 41.6089628,
    "lng": 45.93564,
    "type": "Attraction",
    "city": "kakheti"
  },
  {
    "name_pl": "Tsinandali",
    "slug": "tsinandali",
    "url": "/pl/places-to-go/kakheti/tsinandali/",
    "lat": 41.8925924,
    "lng": 45.5638072,
    "type": "Attraction",
    "city": "kakheti"
  },
  {
    "name_pl": "Gremi",
    "slug": "gremi",
    "url": "/pl/places-to-go/kakheti/gremi/",
    "lat": 42.0011956,
    "lng": 45.6599498,
    "type": "Attraction",
    "city": "kakheti"
  },
  {
    "name_pl": "Kwareli",
    "slug": "kvareli",
    "url": "/pl/places-to-go/kakheti/kvareli/",
    "lat": 41.95396,
    "lng": 45.81586,
    "type": "Place",
    "city": "kakheti"
  },
  {
    "name_pl": "Lagodekhi",
    "slug": "lagodekhi",
    "url": "/pl/places-to-go/kakheti/lagodekhi/",
    "lat": 41.830396,
    "lng": 46.284096,
    "type": "Place",
    "city": "kakheti"
  },
  {
    "name_pl": "Nekresi",
    "slug": "nekresi-monastery",
    "url": "/pl/places-to-go/kakheti/nekresi-monastery/",
    "lat": 42.0055932271685,
    "lng": 45.7619965000001,
    "type": "Attraction",
    "city": "kakheti"
  },
  {
    "name_pl": "Miasto Dawida Gareji",
    "slug": "davit-gareja-monastery",
    "url": "/pl/places-to-go/kakheti/davit-gareja-monastery/",
    "lat": 41.4457802895671,
    "lng": 45.3795753070704,
    "type": "Attraction",
    "city": "kakheti"
  },
  {
    "name_pl": "Klasztor Shuamta",
    "slug": "old-and-new-shuamta",
    "url": "/pl/places-to-go/kakheti/old-and-new-shuamta/",
    "lat": 41.945,
    "lng": 45.517,
    "type": "Attraction",
    "city": "kakheti"
  },
  {
    "name_pl": "Batumi",
    "slug": "batumi",
    "url": "/pl/places-to-go/adjara/batumi/",
    "lat": 41.6422419,
    "lng": 41.6338612,
    "type": "Place",
    "city": "adjara"
  },
  {
    "name_pl": "Twierdza Gonio",
    "slug": "gonio-fortress",
    "url": "/pl/places-to-go/adjara/gonio-fortress/",
    "lat": 41.573218,
    "lng": 41.578836,
    "type": "Attraction",
    "city": "adjara"
  },
  {
    "name_pl": "Ogród Botaniczny w Batumi",
    "slug": "batumi-botanical-garden",
    "url": "/pl/places-to-go/adjara/batumi-botanical-garden/",
    "lat": 41.693466,
    "lng": 41.711944,
    "type": "Attraction",
    "city": "adjara"
  },
  {
    "name_pl": "Meczet w Batumi",
    "slug": "batumi",
    "url": "/pl/places-to-go/adjara/batumi/batumi-mosque/",
    "lat": 41.652,
    "lng": 41.638,
    "type": "Attraction",
    "city": "adjara"
  },
  {
    "name_pl": "Wodospady Makhuntseti",
    "slug": "makhuntseti-waterfall",
    "url": "/pl/places-to-go/adjara/makhuntseti-waterfall/",
    "lat": 41.6207244,
    "lng": 42.037128,
    "type": "Attraction",
    "city": "adjara"
  },
  {
    "name_pl": "Wodospad Merisi",
    "slug": "merisi-waterfall",
    "url": "/pl/places-to-go/adjara/merisi-waterfall/",
    "lat": 41.5700319716428,
    "lng": 42.0274848049493,
    "type": "Attraction",
    "city": "adjara"
  },
  {
    "name_pl": "Latarnia morska w Batumi",
    "slug": "batumi",
    "url": "/pl/places-to-go/adjara/batumi/batumi-lighthouse/",
    "lat": 41.655916,
    "lng": 41.6411072,
    "type": "Attraction",
    "city": "adjara"
  },
  {
    "name_pl": "Delfinarium w Batumi",
    "slug": "batumi",
    "url": "/pl/places-to-go/adjara/batumi/dolphinarium/",
    "lat": 41.6476293783444,
    "lng": 41.6235112135504,
    "type": "Attraction",
    "city": "adjara"
  },
  {
    "name_pl": "Muzeum Sztuki Adżarii",
    "slug": "batumi",
    "url": "/pl/places-to-go/adjara/batumi/adjara-art-museum/",
    "lat": 41.648569397226,
    "lng": 41.6337930841893,
    "type": "Attraction",
    "city": "adjara"
  },
  {
    "name_pl": "Muzeum Archeologiczne w Batumi",
    "slug": "batumi",
    "url": "/pl/places-to-go/adjara/batumi/archaeological-museum/",
    "lat": 41.6431372,
    "lng": 41.6319984,
    "type": "Attraction",
    "city": "adjara"
  },
  {
    "name_pl": "Bulwar Batumi",
    "slug": "batumi",
    "url": "/pl/places-to-go/adjara/batumi/batumi-boulevard/",
    "lat": 41.647006,
    "lng": 41.633534,
    "type": "Attraction",
    "city": "adjara"
  },
  {
    "name_pl": "Plac Piazza",
    "slug": "batumi",
    "url": "/pl/places-to-go/adjara/batumi/piazza-square/",
    "lat": 41.6518086,
    "lng": 41.6385946,
    "type": "Attraction",
    "city": "adjara"
  },
  {
    "name_pl": "Plac Europejski",
    "slug": "batumi",
    "url": "/pl/places-to-go/adjara/batumi/europe-square/",
    "lat": 41.6509266,
    "lng": 41.6391,
    "type": "Attraction",
    "city": "adjara"
  },
  {
    "name_pl": "Alfabetowa Wieża",
    "slug": "batumi",
    "url": "/pl/places-to-go/adjara/batumi/alphabetic-tower/",
    "lat": 41.6440486,
    "lng": 41.6329284,
    "type": "Attraction",
    "city": "adjara"
  },
  {
    "name_pl": "Park Cudów",
    "slug": "batumi",
    "url": "/pl/places-to-go/adjara/batumi/miracle-park/",
    "lat": 41.6454774,
    "lng": 41.6325862,
    "type": "Attraction",
    "city": "adjara"
  },
  {
    "name_pl": "Przejście Graniczne Sarpi",
    "slug": "sarpi-border-crossing",
    "url": "/pl/places-to-go/adjara/sarpi-border-crossing/",
    "lat": 41.5243166499803,
    "lng": 41.5485174006247,
    "type": "Attraction",
    "city": "adjara"
  },
  {
    "name_pl": "Kutaisi",
    "slug": "kutaisi",
    "url": "/pl/places-to-go/imereti/kutaisi/",
    "lat": 42.267021,
    "lng": 42.697952,
    "type": "Place",
    "city": "imereti"
  },
  {
    "name_pl": "Jaskinia Prometeusza",
    "slug": "prometheus-cave",
    "url": "/pl/places-to-go/imereti/prometheus-cave/",
    "lat": 42.376466,
    "lng": 42.600838,
    "type": "Attraction",
    "city": "imereti"
  },
  {
    "name_pl": "Kanion Martvili",
    "slug": "martvili-canyon",
    "url": "/pl/places-to-go/imereti/martvili-canyon/",
    "lat": 42.458113,
    "lng": 42.378924,
    "type": "Attraction",
    "city": "imereti"
  },
  {
    "name_pl": "Kanion Okatse",
    "slug": "okatse-canyon",
    "url": "/pl/places-to-go/imereti/okatse-canyon/",
    "lat": 42.456041,
    "lng": 42.52756,
    "type": "Attraction",
    "city": "imereti"
  },
  {
    "name_pl": "Klasztor Gelati",
    "slug": "gelati-monastery",
    "url": "/pl/places-to-go/imereti/gelati-monastery/",
    "lat": 42.296094,
    "lng": 42.768134,
    "type": "Attraction",
    "city": "imereti"
  },
  {
    "name_pl": "Sataplia",
    "slug": "sataplia-nature-reserve",
    "url": "/pl/places-to-go/imereti/sataplia-nature-reserve/",
    "lat": 42.315592,
    "lng": 42.673258,
    "type": "Attraction",
    "city": "imereti"
  },
  {
    "name_pl": "Kolumna Katskhi",
    "slug": "katskhi-pillar",
    "url": "/pl/places-to-go/imereti/katskhi-pillar/",
    "lat": 42.284,
    "lng": 43.035,
    "type": "Attraction",
    "city": "imereti"
  },
  {
    "name_pl": "Fontanna Kolchis",
    "slug": "kutaisi",
    "url": "/pl/places-to-go/imereti/kutaisi/colchis-fountain/",
    "lat": 42.266528,
    "lng": 42.700228,
    "type": "Attraction",
    "city": "imereti"
  },
  {
    "name_pl": "Biały Most w Kutaisi",
    "slug": "kutaisi",
    "url": "/pl/places-to-go/imereti/kutaisi/white-bridge/",
    "lat": 42.269804,
    "lng": 42.695592,
    "type": "Attraction",
    "city": "imereti"
  },
  {
    "name_pl": "Targ w Kutaisi",
    "slug": "kutaisi",
    "url": "/pl/places-to-go/imereti/kutaisi/kutaisi-market/",
    "lat": 42.259466,
    "lng": 42.696954,
    "type": "Attraction",
    "city": "imereti"
  },
  {
    "name_pl": "Park Centralny w Kutaisi",
    "slug": "kutaisi",
    "url": "/pl/places-to-go/imereti/kutaisi/central-park/",
    "lat": 42.261838,
    "lng": 42.700046,
    "type": "Attraction",
    "city": "imereti"
  },
  {
    "name_pl": "Kanion Okace - Wodospad Kinchkha",
    "slug": "okatse-canyon",
    "url": "/pl/places-to-go/imereti/okatse-canyon/kinchkha-waterfall/",
    "lat": 42.4954503488317,
    "lng": 42.5503207828403,
    "type": "Attraction",
    "city": "imereti"
  },
  {
    "name_pl": "Borjomi",
    "slug": "borjomi",
    "url": "/pl/places-to-go/samtskhe-javakheti/borjomi/",
    "lat": 41.8431662,
    "lng": 43.3828576,
    "type": "Place",
    "city": "samtskhe-javakheti"
  },
  {
    "name_pl": "Park Borjomi",
    "slug": "borjomi-central-park",
    "url": "/pl/places-to-go/samtskhe-javakheti/borjomi-central-park/",
    "lat": 41.836698,
    "lng": 43.390296,
    "type": "Attraction",
    "city": "samtskhe-javakheti"
  },
  {
    "name_pl": "Vardzia",
    "slug": "vardzia",
    "url": "/pl/places-to-go/samtskhe-javakheti/vardzia/",
    "lat": 41.381168,
    "lng": 43.283476,
    "type": "Attraction",
    "city": "samtskhe-javakheti"
  },
  {
    "name_pl": "Twierdza Rabati",
    "slug": "rabati-castle",
    "url": "/pl/places-to-go/samtskhe-javakheti/rabati-castle/",
    "lat": 41.636948,
    "lng": 43.0075,
    "type": "Attraction",
    "city": "samtskhe-javakheti"
  },
  {
    "name_pl": "Sapara",
    "slug": "sapara-monastery",
    "url": "/pl/places-to-go/samtskhe-javakheti/sapara-monastery/",
    "lat": 41.67968,
    "lng": 43.041036,
    "type": "Attraction",
    "city": "samtskhe-javakheti"
  },
  {
    "name_pl": "Twierdza Khertvisi",
    "slug": "khertvisi-fortress",
    "url": "/pl/places-to-go/samtskhe-javakheti/khertvisi-fortress/",
    "lat": 41.4755536,
    "lng": 43.2871364,
    "type": "Attraction",
    "city": "samtskhe-javakheti"
  },
  {
    "name_pl": "Akhaltsikhe",
    "slug": "akhaltsikhe",
    "url": "/pl/places-to-go/samtskhe-javakheti/akhaltsikhe/",
    "lat": 41.6385,
    "lng": 43.0155,
    "type": "Place",
    "city": "samtskhe-javakheti"
  },
  {
    "name_pl": "Uplistsikhe",
    "slug": "uplistsikhe",
    "url": "/pl/places-to-go/shida-kartli/uplistsikhe/",
    "lat": 41.965462,
    "lng": 44.171218,
    "type": "Attraction",
    "city": "shida-kartli"
  },
  {
    "name_pl": "Gori",
    "slug": "gori",
    "url": "/pl/places-to-go/shida-kartli/gori/",
    "lat": 41.98562064584711,
    "lng": 44.11298686931099,
    "type": "Place",
    "city": "shida-kartli"
  },
  {
    "name_pl": "Twierdza Gori",
    "slug": "gori",
    "url": "/pl/places-to-go/shida-kartli/gori/gori-fortress/",
    "lat": 41.9846,
    "lng": 44.1044,
    "type": "Attraction",
    "city": "shida-kartli"
  },
  {
    "name_pl": "Muzeum Stalina",
    "slug": "gori",
    "url": "/pl/places-to-go/shida-kartli/gori/stalin-museum/",
    "lat": 41.9864748,
    "lng": 44.1114,
    "type": "Attraction",
    "city": "shida-kartli"
  },
  {
    "name_pl": "Mestia",
    "slug": "mestia",
    "url": "/pl/places-to-go/samegrelo-zemo-svaneti/mestia/",
    "lat": 43.045634,
    "lng": 42.725732,
    "type": "Place",
    "city": "samegrelo-zemo-svaneti"
  },
  {
    "name_pl": "Ushguli",
    "slug": "ushguli",
    "url": "/pl/places-to-go/samegrelo-zemo-svaneti/ushguli/",
    "lat": 42.9131,
    "lng": 43.0148,
    "type": "Place",
    "city": "samegrelo-zemo-svaneti"
  },
  {
    "name_pl": "Zugdidi",
    "slug": "zugdidi",
    "url": "/pl/places-to-go/samegrelo-zemo-svaneti/zugdidi/",
    "lat": 42.51244,
    "lng": 41.86624,
    "type": "Place",
    "city": "samegrelo-zemo-svaneti"
  },
  {
    "name_pl": "Tsalenjikha",
    "slug": "tsalenjikha",
    "url": "/pl/places-to-go/samegrelo-zemo-svaneti/tsalenjikha/",
    "lat": 42.604816,
    "lng": 42.061662,
    "type": "Place",
    "city": "samegrelo-zemo-svaneti"
  },
  {
    "name_pl": "Jezioro Koruldi",
    "slug": "koruldi-lake",
    "url": "/pl/places-to-go/samegrelo-zemo-svaneti/koruldi-lake/",
    "lat": 43.062424,
    "lng": 42.7321499999999,
    "type": "Attraction",
    "city": "samegrelo-zemo-svaneti"
  },
  {
    "name_pl": "Lodowiec Chalaadi",
    "slug": "chalaadi-glacier",
    "url": "/pl/places-to-go/samegrelo-zemo-svaneti/chalaadi-glacier/",
    "lat": 43.0987416,
    "lng": 42.6866656,
    "type": "Attraction",
    "city": "samegrelo-zemo-svaneti"
  },
  {
    "name_pl": "Muzeum Historii i Etnografii w Mestii",
    "slug": "mestia",
    "url": "/pl/places-to-go/samegrelo-zemo-svaneti/mestia/svaneti-museum/",
    "lat": 43.044604,
    "lng": 42.730148,
    "type": "Attraction",
    "city": "samegrelo-zemo-svaneti"
  },
  {
    "name_pl": "Przełęcz Zagari",
    "slug": "zagaro-pass",
    "url": "/pl/places-to-go/samegrelo-zemo-svaneti/zagaro-pass/",
    "lat": 42.9564,
    "lng": 42.9706,
    "type": "Attraction",
    "city": "samegrelo-zemo-svaneti"
  },
  {
    "name_pl": "Pałac Dadiani",
    "slug": "dadiani-palace",
    "url": "/pl/places-to-go/samegrelo-zemo-svaneti/dadiani-palace/",
    "lat": 42.508988,
    "lng": 41.867882,
    "type": "Attraction",
    "city": "samegrelo-zemo-svaneti"
  },
  {
    "name_pl": "Katedra Bagrati",
    "slug": "kutaisi",
    "url": "/pl/places-to-go/imereti/kutaisi/bagrati-cathedral/",
    "lat": 42.2772453,
    "lng": 42.7042973,
    "type": "Attraction",
    "city": "imereti"
  },
  {
    "name_pl": "Klasztor Motsameta",
    "slug": "motsameta-monastery",
    "url": "/pl/places-to-go/imereti/motsameta-monastery/",
    "lat": 42.2823173387309,
    "lng": 42.7589902055339,
    "type": "Attraction",
    "city": "imereti"
  },
  {
    "name_pl": "Wodospad Kinchkha",
    "slug": "kinchkha-waterfall",
    "url": "/pl/places-to-go/imereti/kinchkha-waterfall/",
    "lat": 42.4954503488317,
    "lng": 42.5503207828403,
    "type": "Attraction",
    "city": "imereti"
  },
  {
    "name_pl": "Kareli",
    "slug": "kareli",
    "url": "/pl/places-to-go/shida-kartli/kareli/",
    "lat": 42.01854613033433,
    "lng": 43.88973412053841,
    "type": "Place",
    "city": "shida-kartli"
  },
  {
    "name_pl": "Gori",
    "slug": "gori",
    "url": "/pl/places-to-go/shida-kartli/gori/",
    "lat": 41.98562064584711,
    "lng": 44.11298686931099,
    "type": "Place",
    "city": "shida-kartli"
  },
  {
    "name_pl": "Khashuri",
    "slug": "khashuri",
    "url": "/pl/places-to-go/shida-kartli/khashuri/",
    "lat": 41.99310605779684,
    "lng": 43.59493207978387,
    "type": "Place",
    "city": "shida-kartli"
  },
  {
    "name_pl": "Rustavi",
    "slug": "rustavi",
    "url": "/pl/places-to-go/kvemo-kartli/rustavi/",
    "lat": 41.5488,
    "lng": 44.9938,
    "type": "Place",
    "city": "kvemo-kartli"
  },
  {
    "name_pl": "Bolnisi",
    "slug": "bolnisi",
    "url": "/pl/places-to-go/kvemo-kartli/bolnisi/",
    "lat": 41.44890308660789,
    "lng": 44.54306199637497,
    "type": "Place",
    "city": "kvemo-kartli"
  },
  {
    "name_pl": "Bazylika Bolnisi Sioni",
    "slug": "bolnisi-sioni",
    "url": "/pl/places-to-go/kvemo-kartli/bolnisi-sioni/",
    "lat": 41.3899,
    "lng": 44.5132,
    "type": "Attraction",
    "city": "kvemo-kartli"
  },
  {
    "name_pl": "Dmanisi",
    "slug": "dmanisi",
    "url": "/pl/places-to-go/kvemo-kartli/dmanisi/",
    "lat": 41.33,
    "lng": 44.34,
    "type": "Attraction",
    "city": "kvemo-kartli"
  },
  {
    "name_pl": "Phoka",
    "slug": "poka",
    "url": "/pl/places-to-go/samtskhe-javakheti/poka/",
    "lat": 41.539,
    "lng": 43.841,
    "type": "Place",
    "city": "samtskhe-javakheti"
  },
  {
    "name_pl": "Jezioro Parawani",
    "slug": "paravani-lake",
    "url": "/pl/places-to-go/samtskhe-javakheti/paravani-lake/",
    "lat": 41.4627,
    "lng": 43.7931,
    "type": "Attraction",
    "city": "samtskhe-javakheti"
  },
  {
    "name_pl": "Shaori",
    "slug": "shaori-reservoir",
    "url": "/pl/places-to-go/racha-lechkhumi-and-kvemo-svaneti/shaori-reservoir/",
    "lat": 42.3849,
    "lng": 43.3099,
    "type": "Attraction",
    "city": "racha-lechkhumi-and-kvemo-svaneti"
  },
  {
    "name_pl": "Oni",
    "slug": "oni",
    "url": "/pl/places-to-go/racha-lechkhumi-and-kvemo-svaneti/oni/",
    "lat": 42.3768,
    "lng": 43.4416,
    "type": "Place",
    "city": "racha-lechkhumi-and-kvemo-svaneti"
  },
  {
    "name_pl": "Synagoga w Oni",
    "slug": "oni",
    "url": "/pl/places-to-go/racha-lechkhumi-and-kvemo-svaneti/oni/oni-synagogue/",
    "lat": 42.3782,
    "lng": 43.4428,
    "type": "Attraction",
    "city": "racha-lechkhumi-and-kvemo-svaneti"
  },
  {
    "name_pl": "Nikortsminda",
    "slug": "nikortsminda-cathedral",
    "url": "/pl/places-to-go/racha-lechkhumi-and-kvemo-svaneti/nikortsminda-cathedral/",
    "lat": 42.4574,
    "lng": 43.1002,
    "type": "Attraction",
    "city": "racha-lechkhumi-and-kvemo-svaneti"
  },
  {
    "name_pl": "Ambrolauri",
    "slug": "ambrolauri",
    "url": "/pl/places-to-go/racha-lechkhumi-and-kvemo-svaneti/ambrolauri/",
    "lat": 42.5222,
    "lng": 43.1472,
    "type": "Place",
    "city": "racha-lechkhumi-and-kvemo-svaneti"
  },
  {
    "name_pl": "Klasztor Ubisi",
    "slug": "ubisa-monastery",
    "url": "/pl/places-to-go/imereti/ubisa-monastery/",
    "lat": 42.0775,
    "lng": 43.4553,
    "type": "Attraction",
    "city": "imereti"
  },
  {
    "name_pl": "Twierdza Surami",
    "slug": "surami-fortress",
    "url": "/pl/places-to-go/shida-kartli/surami-fortress/",
    "lat": 42.0141,
    "lng": 43.5598,
    "type": "Attraction",
    "city": "shida-kartli"
  },
  {
    "name_pl": "Tskaltubo",
    "slug": "tskaltubo",
    "url": "/pl/places-to-go/imereti/tskaltubo/",
    "lat": 42.3396,
    "lng": 42.597,
    "type": "Place",
    "city": "imereti"
  },
  {
    "name_pl": "Poti",
    "slug": "poti",
    "url": "/pl/places-to-go/samegrelo-zemo-svaneti/poti/",
    "lat": 42.1466,
    "lng": 41.6715,
    "type": "Place",
    "city": "samegrelo-zemo-svaneti"
  },
  {
    "name_pl": "Senaki",
    "slug": "senaki",
    "url": "/pl/places-to-go/samegrelo-zemo-svaneti/senaki/",
    "lat": 42.0705,
    "lng": 42.066,
    "type": "Place",
    "city": "samegrelo-zemo-svaneti"
  },
  {
    "name_pl": "Chiatura",
    "slug": "chiatura",
    "url": "/pl/places-to-go/imereti/chiatura/",
    "lat": 42.2961,
    "lng": 43.2972,
    "type": "Place",
    "city": "imereti"
  },
  {
    "name_pl": "Kolej Linowa w Chiaturze",
    "slug": "chiatura",
    "url": "/pl/places-to-go/imereti/chiatura/chiatura-cable-car/",
    "lat": 42.294,
    "lng": 43.2967,
    "type": "Attraction",
    "city": "imereti"
  },
  {
    "name_pl": "Tusheti",
    "slug": "tusheti",
    "url": "/pl/places-to-go/kakheti/tusheti/",
    "lat": 42.3942,
    "lng": 45.3089,
    "type": "Attraction",
    "city": "kakheti"
  },
  {
    "name_pl": "Omalo",
    "slug": "omalo",
    "url": "/pl/places-to-go/kakheti/omalo/",
    "lat": 42.3812,
    "lng": 45.3439,
    "type": "Place",
    "city": "kakheti"
  },
  {
    "name_pl": "Przełęcz Abano",
    "slug": "abano-pass",
    "url": "/pl/places-to-go/kakheti/abano-pass/",
    "lat": 42.2966,
    "lng": 45.2697,
    "type": "Attraction",
    "city": "kakheti"
  },
  {
    "name_pl": "Żinwali",
    "slug": "zhinvali-reservoir",
    "url": "/pl/places-to-go/mtskheta-mtianeti/zhinvali-reservoir/",
    "lat": 42.1096,
    "lng": 44.7392,
    "type": "Attraction",
    "city": "mtskheta-mtianeti"
  },
  {
    "name_pl": "Stepantsminda",
    "slug": "kazbegi",
    "url": "/pl/places-to-go/mtskheta-mtianeti/kazbegi/",
    "lat": 42.6591763,
    "lng": 44.6385744,
    "type": "Place",
    "city": "mtskheta-mtianeti"
  },
  {
    "name_pl": "Kobuleti",
    "slug": "kobuleti",
    "url": "/pl/places-to-go/adjara/kobuleti/",
    "lat": 41.8194,
    "lng": 41.7806,
    "type": "Place",
    "city": "adjara"
  },
  {
    "name_pl": "Khulo",
    "slug": "khulo",
    "url": "/pl/places-to-go/adjara/khulo/",
    "lat": 41.6458,
    "lng": 42.3093,
    "type": "Place",
    "city": "adjara"
  }
]