[
  {
    "id": "adjara-art-museum",
    "name_pl": "Muzeum Sztuki Adżarii",
    "region": "adjara",
    "lat": 41.648569,
    "lng": 41.633793,
    "type": "Attraction",
    "tags": [
      "Kulturalny i Artystyczny"
    ],
    "url": "/pl/places-to-go/adjara/batumi/adjara-art-museum/"
  },
  {
    "id": "ali-and-nino-statue",
    "name_pl": "Posąg Ali i Nino",
    "region": "adjara",
    "lat": 41.653424,
    "lng": 41.63381,
    "type": "Attraction",
    "tags": [
      "Atrakcje miejskie"
    ],
    "url": "/pl/places-to-go/adjara/batumi/ali-and-nino-statue/"
  },
  {
    "id": "alphabetic-tower",
    "name_pl": "Wieża Alfabetyczna",
    "region": "adjara",
    "lat": 41.655693,
    "lng": 41.640073,
    "type": "Attraction",
    "tags": [
      "Atrakcje miejskie"
    ],
    "url": "/pl/places-to-go/adjara/batumi/alphabetic-tower/"
  },
  {
    "id": "arch-bridge-of-chkheri",
    "name_pl": "Most Łukowy w Chkheri",
    "region": "adjara",
    "lat": 41.482448,
    "lng": 41.862721,
    "type": "Attraction",
    "tags": [],
    "url": "/pl/places-to-go/adjara/arch-bridge-of-chkheri/"
  },
  {
    "id": "archaeological-museum",
    "name_pl": "Muzeum Archeologiczne w Batumi",
    "region": "adjara",
    "lat": 41.643137,
    "lng": 41.631998,
    "type": "Attraction",
    "tags": [
      "Kulturalny i Artystyczny"
    ],
    "url": "/pl/places-to-go/adjara/batumi/archaeological-museum/"
  },
  {
    "id": "argo-cable-car",
    "name_pl": "Kolejka linowa Argo",
    "region": "adjara",
    "lat": 41.645277,
    "lng": 41.635927,
    "type": "Attraction",
    "tags": [],
    "url": "/pl/places-to-go/adjara/batumi/argo-cable-car/"
  },
  {
    "id": "batumi",
    "name_pl": "Batumi",
    "region": "adjara",
    "lat": 41.646282,
    "lng": 41.640244,
    "type": "Place",
    "tags": [],
    "url": "/pl/places-to-go/adjara/batumi/"
  },
  {
    "id": "batumi-boulevard",
    "name_pl": "Bulwar Batumi",
    "region": "adjara",
    "lat": 41.655503,
    "lng": 41.634096,
    "type": "Attraction",
    "tags": [
      "Atrakcje miejskie"
    ],
    "url": "/pl/places-to-go/adjara/batumi/batumi-boulevard/"
  },
  {
    "id": "batumi-lighthouse",
    "name_pl": "Latarnia Morska w Batumi",
    "region": "adjara",
    "lat": 41.654627,
    "lng": 41.635519,
    "type": "Attraction",
    "tags": [],
    "url": "/pl/places-to-go/adjara/batumi/batumi-lighthouse/"
  },
  {
    "id": "batumi-lunapark",
    "name_pl": "Batumi Lunapark",
    "region": "adjara",
    "lat": 41.641538,
    "lng": 41.612124,
    "type": "Attraction",
    "tags": [],
    "url": "/pl/places-to-go/adjara/batumi/batumi-lunapark/"
  },
  {
    "id": "botanical-garden-batumi",
    "name_pl": "Ogród Botaniczny w Batumi",
    "region": "adjara",
    "lat": 41.69478,
    "lng": 41.715454,
    "type": "Attraction",
    "tags": [
      "Krajobrazy Naturalne"
    ],
    "url": "/pl/places-to-go/adjara/batumi/botanical-garden-batumi/"
  },
  {
    "id": "chakvi",
    "name_pl": "Chakvi",
    "region": "adjara",
    "lat": 41.733425,
    "lng": 41.732837,
    "type": "Place",
    "tags": [],
    "url": "/pl/places-to-go/adjara/chakvi/"
  },
  {
    "id": "dancing-fountains",
    "name_pl": "Tańczące Fontanny",
    "region": "adjara",
    "lat": 41.65301,
    "lng": 41.63669,
    "type": "Attraction",
    "tags": [],
    "url": "/pl/places-to-go/adjara/batumi/dancing-fountains/"
  },
  {
    "id": "dolphinarium",
    "name_pl": "Delfinarium w Batumi",
    "region": "adjara",
    "lat": 41.647629,
    "lng": 41.623511,
    "type": "Attraction",
    "tags": [
      "Rekreacja i rozrywka"
    ],
    "url": "/pl/places-to-go/adjara/batumi/dolphinarium/"
  },
  {
    "id": "goderdzi",
    "name_pl": "Goderdzi",
    "region": "adjara",
    "lat": 41.637248,
    "lng": 42.490656,
    "type": "Place",
    "tags": [
      "Adżaria",
      "Natura i Przygoda"
    ],
    "url": "/pl/places-to-go/adjara/goderdzi/"
  },
  {
    "id": "gonio",
    "name_pl": "Gonio",
    "region": "adjara",
    "lat": 41.565696,
    "lng": 41.570001,
    "type": "Place",
    "tags": [],
    "url": "/pl/places-to-go/adjara/gonio/"
  },
  {
    "id": "keda",
    "name_pl": "Keda",
    "region": "adjara",
    "lat": 41.59785,
    "lng": 41.939939,
    "type": "Place",
    "tags": [],
    "url": "/pl/places-to-go/adjara/keda/"
  },
  {
    "id": "khulo",
    "name_pl": "Khulo",
    "region": "adjara",
    "lat": 41.645001,
    "lng": 42.312866,
    "type": "Place",
    "tags": [],
    "url": "/pl/places-to-go/adjara/khulo/"
  },
  {
    "id": "kintrishi-nature-reserve",
    "name_pl": "Rezerwat Przyrody Kintrishi",
    "region": "adjara",
    "lat": 41.748926,
    "lng": 42.035661,
    "type": "Attraction",
    "tags": [],
    "url": "/pl/places-to-go/adjara/kintrishi-nature-reserve/"
  },
  {
    "id": "kobuleti",
    "name_pl": "Kobuleti",
    "region": "adjara",
    "lat": 41.809966,
    "lng": 41.780101,
    "type": "Place",
    "tags": [],
    "url": "/pl/places-to-go/adjara/kobuleti/"
  },
  {
    "id": "kvariati",
    "name_pl": "Kvariati",
    "region": "adjara",
    "lat": 41.544067,
    "lng": 41.554974,
    "type": "Place",
    "tags": [],
    "url": "/pl/places-to-go/adjara/kvariati/"
  },
  {
    "id": "makhinjauri",
    "name_pl": "Makhinjauri",
    "region": "adjara",
    "lat": 41.676883,
    "lng": 41.696984,
    "type": "Place",
    "tags": [],
    "url": "/pl/places-to-go/adjara/makhinjauri/"
  },
  {
    "id": "merisi",
    "name_pl": "Merisi",
    "region": "adjara",
    "lat": 41.584796,
    "lng": 42.007032,
    "type": "Place",
    "tags": [],
    "url": "/pl/places-to-go/adjara/merisi/"
  },
  {
    "id": "merisi-waterfall",
    "name_pl": "Wodospad Merisi",
    "region": "adjara",
    "lat": 41.570032,
    "lng": 42.027485,
    "type": "Attraction",
    "tags": [
      "Krajobrazy Naturalne",
      "Adżaria",
      "Natura i Przygoda"
    ],
    "url": "/pl/places-to-go/adjara/merisi-waterfall/"
  },
  {
    "id": "panoramic-wheel-batumi",
    "name_pl": "Panorama Koło Batumi",
    "region": "adjara",
    "lat": 41.655393,
    "lng": 41.642491,
    "type": "Attraction",
    "tags": [],
    "url": "/pl/places-to-go/adjara/batumi/panoramic-wheel-batumi/"
  },
  {
    "id": "petra-fortress",
    "name_pl": "Twierdza Petra",
    "region": "adjara",
    "lat": 41.768198,
    "lng": 41.753631,
    "type": "Attraction",
    "tags": [],
    "url": "/pl/places-to-go/adjara/petra-fortress/"
  },
  {
    "id": "piazza-batumi",
    "name_pl": "Piazza Batumi",
    "region": "adjara",
    "lat": 41.649834,
    "lng": 41.639428,
    "type": "Attraction",
    "tags": [],
    "url": "/pl/places-to-go/adjara/batumi/piazza-batumi/"
  },
  {
    "id": "sarpi",
    "name_pl": "Sarpi",
    "region": "adjara",
    "lat": 41.521697,
    "lng": 41.548495,
    "type": "Place",
    "tags": [],
    "url": "/pl/places-to-go/adjara/sarpi/"
  },
  {
    "id": "tsikhisdziri",
    "name_pl": "Tsikhisdziri",
    "region": "adjara",
    "lat": 41.76473,
    "lng": 41.762127,
    "type": "Place",
    "tags": [],
    "url": "/pl/places-to-go/adjara/tsikhisdziri/"
  },
  {
    "id": "askana",
    "name_pl": "Askana",
    "region": "guria",
    "lat": 41.875476,
    "lng": 42.184474,
    "type": "Place",
    "tags": [],
    "url": "/pl/places-to-go/guria/askana/"
  },
  {
    "id": "atchi-church",
    "name_pl": "Kościół w Atchi",
    "region": "guria",
    "lat": 41.847778,
    "lng": 42.00533,
    "type": "Attraction",
    "tags": [],
    "url": "/pl/places-to-go/guria/atchi-church/"
  },
  {
    "id": "atsana",
    "name_pl": "Atsana",
    "region": "guria",
    "lat": 42.049398,
    "lng": 42.065932,
    "type": "Place",
    "tags": [],
    "url": "/pl/places-to-go/guria/atsana/"
  },
  {
    "id": "bakhmaro",
    "name_pl": "Bakhmaro",
    "region": "guria",
    "lat": 41.859975,
    "lng": 42.384073,
    "type": "Place",
    "tags": [
      "Guria",
      "Natura i Przygoda"
    ],
    "url": "/pl/places-to-go/guria/bakhmaro/"
  },
  {
    "id": "chaisubani",
    "name_pl": "Chaisubani",
    "region": "guria",
    "lat": 41.886236,
    "lng": 42.271367,
    "type": "Place",
    "tags": [],
    "url": "/pl/places-to-go/guria/chaisubani/"
  },
  {
    "id": "chokhatauri",
    "name_pl": "Chokhatauri",
    "region": "guria",
    "lat": 41.981666,
    "lng": 42.173389,
    "type": "Place",
    "tags": [],
    "url": "/pl/places-to-go/guria/chokhatauri/"
  },
  {
    "id": "gomismta",
    "name_pl": "Gomismta",
    "region": "guria",
    "lat": 41.824232,
    "lng": 42.158631,
    "type": "Place",
    "tags": [],
    "url": "/pl/places-to-go/guria/gomismta/"
  },
  {
    "id": "goraberezhouli-park",
    "name_pl": "Park Goraberezhouli",
    "region": "guria",
    "lat": 42.007935,
    "lng": 42.205601,
    "type": "Attraction",
    "tags": [],
    "url": "/pl/places-to-go/guria/goraberezhouli-park/"
  },
  {
    "id": "likhauri",
    "name_pl": "Likhauri",
    "region": "guria",
    "lat": 41.891063,
    "lng": 41.912543,
    "type": "Place",
    "tags": [],
    "url": "/pl/places-to-go/guria/likhauri/"
  },
  {
    "id": "miniature-park",
    "name_pl": "Park Miniatur",
    "region": "guria",
    "lat": 41.904404,
    "lng": 41.777654,
    "type": "Attraction",
    "tags": [
      "Rekreacja i rozrywka",
      "Guria",
      "Rodzina"
    ],
    "url": "/pl/places-to-go/guria/miniature-park/"
  },
  {
    "id": "musicians-park",
    "name_pl": "Park Muzyków",
    "region": "guria",
    "lat": 41.940997,
    "lng": 41.774527,
    "type": "Attraction",
    "tags": [
      "Atrakcje miejskie",
      "Guria",
      "Kultura i Sztuka #Rodzina #Rozrywka"
    ],
    "url": "/pl/places-to-go/guria/musicians-park/"
  },
  {
    "id": "nagomari",
    "name_pl": "Nagomari",
    "region": "guria",
    "lat": 41.999831,
    "lng": 42.103997,
    "type": "Place",
    "tags": [
      "Guria"
    ],
    "url": "/pl/places-to-go/guria/nagomari/"
  },
  {
    "id": "ozurgeti",
    "name_pl": "Ozurgeti",
    "region": "guria",
    "lat": 41.922017,
    "lng": 42.005804,
    "type": "Place",
    "tags": [],
    "url": "/pl/places-to-go/guria/ozurgeti/"
  },
  {
    "id": "ozurgeti-history-museum",
    "name_pl": "Muzeum Historii w Ozurgeti",
    "region": "guria",
    "lat": 41.922525,
    "lng": 42.005145,
    "type": "Attraction",
    "tags": [
      "Kulturalny i Artystyczny"
    ],
    "url": "/pl/places-to-go/guria/ozurgeti/ozurgeti-history-museum/"
  },
  {
    "id": "shekvetili",
    "name_pl": "Shekvetili",
    "region": "guria",
    "lat": 41.955427,
    "lng": 41.772458,
    "type": "Place",
    "tags": [],
    "url": "/pl/places-to-go/guria/shekvetili/"
  },
  {
    "id": "shekvetili-dendrological-park",
    "name_pl": "Park Dendrologiczny w Shekvetili",
    "region": "guria",
    "lat": 41.959515,
    "lng": 41.768753,
    "type": "Attraction",
    "tags": [
      "Krajobrazy Naturalne",
      "Guria",
      "Natura i Przygoda #Rodzina"
    ],
    "url": "/pl/places-to-go/guria/shekvetili-dendrological-park/"
  },
  {
    "id": "supsa",
    "name_pl": "Supsa",
    "region": "guria",
    "lat": 41.974362,
    "lng": 41.848023,
    "type": "Place",
    "tags": [],
    "url": "/pl/places-to-go/guria/supsa/"
  },
  {
    "id": "tsitsinatela",
    "name_pl": "Park Rozrywki Tsitsinatela",
    "region": "guria",
    "lat": 41.942775,
    "lng": 41.775279,
    "type": "Attraction",
    "tags": [
      "Rekreacja i rozrywka",
      "Guria",
      "Rodzina"
    ],
    "url": "/pl/places-to-go/guria/tsitsinatela/"
  },
  {
    "id": "ureki",
    "name_pl": "Ureki",
    "region": "guria",
    "lat": 41.997608,
    "lng": 41.758697,
    "type": "Place",
    "tags": [],
    "url": "/pl/places-to-go/guria/ureki/"
  },
  {
    "id": "bagrati-cathedral",
    "name_pl": "Katedra Bagrati",
    "region": "imereti",
    "lat": 42.277245,
    "lng": 42.704297,
    "type": "Attraction",
    "tags": [],
    "url": "/pl/places-to-go/imereti/kutaisi/bagrati-cathedral/"
  },
  {
    "id": "chiatura",
    "name_pl": "Chiatura",
    "region": "imereti",
    "lat": 42.295899,
    "lng": 43.299148,
    "type": "Place",
    "tags": [],
    "url": "/pl/places-to-go/imereti/chiatura/"
  },
  {
    "id": "chiatura-local-museum",
    "name_pl": "Muzeum lokalne w Chiatura",
    "region": "imereti",
    "lat": 42.287746,
    "lng": 43.300361,
    "type": "Attraction",
    "tags": [
      "Kulturalny i Artystyczny"
    ],
    "url": "/pl/places-to-go/imereti/chiatura/chiatura-local-museum/"
  },
  {
    "id": "gelati-monastery",
    "name_pl": "Klasztor Gelati",
    "region": "imereti",
    "lat": 42.294503,
    "lng": 42.768142,
    "type": "Attraction",
    "tags": [
      "Imereti",
      "Kultura i Sztuka #Historia"
    ],
    "url": "/pl/places-to-go/imereti/gelati-monastery/"
  },
  {
    "id": "gordi",
    "name_pl": "Zeda Gordi",
    "region": "imereti",
    "lat": 42.455444,
    "lng": 42.527384,
    "type": "Place",
    "tags": [],
    "url": "/pl/places-to-go/imereti/gordi/"
  },
  {
    "id": "katskhi-monastery",
    "name_pl": "Klasztor Katskhi",
    "region": "imereti",
    "lat": 42.269341,
    "lng": 43.213135,
    "type": "Attraction",
    "tags": [],
    "url": "/pl/places-to-go/imereti/katskhi-monastery/"
  },
  {
    "id": "katskhi-pillar",
    "name_pl": "Filar Katskhi",
    "region": "imereti",
    "lat": 42.268896,
    "lng": 43.213627,
    "type": "Attraction",
    "tags": [],
    "url": "/pl/places-to-go/imereti/katskhi-pillar/"
  },
  {
    "id": "kinchkha-waterfall",
    "name_pl": "Wodospad Kinchkha",
    "region": "imereti",
    "lat": 42.459375,
    "lng": 42.538093,
    "type": "Attraction",
    "tags": [
      "Krajobrazy Naturalne",
      "Imereti",
      "Natura i Przygoda"
    ],
    "url": "/pl/places-to-go/imereti/kinchkha-waterfall/"
  },
  {
    "id": "kutaisi",
    "name_pl": "Kutaisi",
    "region": "imereti",
    "lat": 42.271875,
    "lng": 42.705494,
    "type": "Place",
    "tags": [
      "Imereti"
    ],
    "url": "/pl/places-to-go/imereti/kutaisi/"
  },
  {
    "id": "kutaisi-cable-car",
    "name_pl": "Kolejka linowa w Kutaisi",
    "region": "imereti",
    "lat": 42.2696,
    "lng": 42.700903,
    "type": "Attraction",
    "tags": [],
    "url": "/pl/places-to-go/imereti/kutaisi/kutaisi-cable-car/"
  },
  {
    "id": "modinakhe-fortress",
    "name_pl": "Twierdza Modinakhe",
    "region": "imereti",
    "lat": 42.348631,
    "lng": 43.404092,
    "type": "Attraction",
    "tags": [],
    "url": "/pl/places-to-go/imereti/modinakhe-fortress/"
  },
  {
    "id": "motsameta-monastery",
    "name_pl": "Klasztor Motsameta",
    "region": "imereti",
    "lat": 42.282317,
    "lng": 42.75899,
    "type": "Attraction",
    "tags": [
      "Imereti",
      "Historia"
    ],
    "url": "/pl/places-to-go/imereti/motsameta-monastery/"
  },
  {
    "id": "okatse-canyon",
    "name_pl": "Kanion Okatse",
    "region": "imereti",
    "lat": 42.448568,
    "lng": 42.549815,
    "type": "Attraction",
    "tags": [
      "Krajobrazy Naturalne",
      "Imereti",
      "Natura i Przygoda #Rodzina"
    ],
    "url": "/pl/places-to-go/imereti/okatse-canyon/"
  },
  {
    "id": "okatse-waterfall",
    "name_pl": "Okatse Wodospad",
    "region": "imereti",
    "lat": 42.467696,
    "lng": 42.542779,
    "type": "Attraction",
    "tags": [],
    "url": "/pl/places-to-go/imereti/okatse-waterfall/"
  },
  {
    "id": "prometheus-cave",
    "name_pl": "Jaskinia Prometeusza",
    "region": "imereti",
    "lat": 42.376459,
    "lng": 42.600832,
    "type": "Attraction",
    "tags": [
      "Krajobrazy Naturalne",
      "Imereti",
      "Natura i Przygoda #Rodzina"
    ],
    "url": "/pl/places-to-go/imereti/prometheus-cave/"
  },
  {
    "id": "samtredia",
    "name_pl": "Samtredia",
    "region": "imereti",
    "lat": 42.161888,
    "lng": 42.343368,
    "type": "Place",
    "tags": [],
    "url": "/pl/places-to-go/imereti/samtredia/"
  },
  {
    "id": "sataplia-reserve",
    "name_pl": "Rezerwat Sataplia",
    "region": "imereti",
    "lat": 42.31461,
    "lng": 42.66008,
    "type": "Attraction",
    "tags": [
      "Krajobrazy Naturalne",
      "Imereti",
      "Natura i Przygoda #Rodzina"
    ],
    "url": "/pl/places-to-go/imereti/sataplia-reserve/"
  },
  {
    "id": "tskaltubo",
    "name_pl": "Tskaltubo",
    "region": "imereti",
    "lat": 42.326382,
    "lng": 42.600762,
    "type": "Place",
    "tags": [],
    "url": "/pl/places-to-go/imereti/tskaltubo/"
  },
  {
    "id": "ubisi-monastery",
    "name_pl": "Klasztor Ubisi",
    "region": "imereti",
    "lat": 42.099617,
    "lng": 43.22817,
    "type": "Attraction",
    "tags": [],
    "url": "/pl/places-to-go/imereti/ubisi-monastery/"
  },
  {
    "id": "zestaponi",
    "name_pl": "Zestaponi",
    "region": "imereti",
    "lat": 42.107521,
    "lng": 43.039173,
    "type": "Place",
    "tags": [
      "Imereti"
    ],
    "url": "/pl/places-to-go/imereti/zestaponi/"
  },
  {
    "id": "abano-pass",
    "name_pl": "Przełęcz Abano",
    "region": "kakheti",
    "lat": 42.277693,
    "lng": 45.504506,
    "type": "Attraction",
    "tags": [
      "Krajobrazy Naturalne",
      "Kakheti",
      "Natura i Przygoda"
    ],
    "url": "/pl/places-to-go/kakheti/abano-pass/"
  },
  {
    "id": "akhasheni",
    "name_pl": "Akhasheni",
    "region": "kakheti",
    "lat": 41.793308,
    "lng": 45.75286,
    "type": "Place",
    "tags": [],
    "url": "/pl/places-to-go/kakheti/akhasheni/"
  },
  {
    "id": "akhmeta",
    "name_pl": "Akhmeta",
    "region": "kakheti",
    "lat": 42.038306,
    "lng": 45.205999,
    "type": "Place",
    "tags": [],
    "url": "/pl/places-to-go/kakheti/akhmeta/"
  },
  {
    "id": "alaverdi-monastery",
    "name_pl": "Klasztor Alaverdi",
    "region": "kakheti",
    "lat": 42.032409,
    "lng": 45.377385,
    "type": "Attraction",
    "tags": [
      "Kakheti",
      "Historia"
    ],
    "url": "/pl/places-to-go/kakheti/alaverdi-monastery/"
  },
  {
    "id": "alvani",
    "name_pl": "Alvani",
    "region": "kakheti",
    "lat": 42.045941,
    "lng": 45.329168,
    "type": "Place",
    "tags": [],
    "url": "/pl/places-to-go/kakheti/alvani/"
  },
  {
    "id": "archaeological-site",
    "name_pl": "Stanowisko Archeologiczne",
    "region": "kakheti",
    "lat": 41.977012,
    "lng": 45.76678,
    "type": "Attraction",
    "tags": [],
    "url": "/pl/places-to-go/kakheti/archaeological-site/"
  },
  {
    "id": "bochorna",
    "name_pl": "Bochorna",
    "region": "kakheti",
    "lat": 42.402335,
    "lng": 45.586237,
    "type": "Place",
    "tags": [],
    "url": "/pl/places-to-go/kakheti/bochorna/"
  },
  {
    "id": "bodbe-monastery",
    "name_pl": "Klasztor Bodbe",
    "region": "kakheti",
    "lat": 41.612424,
    "lng": 45.93266,
    "type": "Attraction",
    "tags": [
      "Kakheti",
      "Historia"
    ],
    "url": "/pl/places-to-go/kakheti/bodbe-monastery/"
  },
  {
    "id": "david-gareja",
    "name_pl": "David Gareja",
    "region": "kakheti",
    "lat": 41.447423,
    "lng": 45.376702,
    "type": "Attraction",
    "tags": [
      "Kakheti",
      "Historia"
    ],
    "url": "/pl/places-to-go/kakheti/david-gareja/"
  },
  {
    "id": "dedoplistskaro",
    "name_pl": "Dedoplistskaro",
    "region": "kakheti",
    "lat": 41.460705,
    "lng": 46.115991,
    "type": "Place",
    "tags": [],
    "url": "/pl/places-to-go/kakheti/dedoplistskaro/"
  },
  {
    "id": "girevi",
    "name_pl": "Girevi",
    "region": "kakheti",
    "lat": 42.49794,
    "lng": 45.481115,
    "type": "Place",
    "tags": [],
    "url": "/pl/places-to-go/kakheti/girevi/"
  },
  {
    "id": "gogrulta",
    "name_pl": "Gogrulta",
    "region": "kakheti",
    "lat": 42.379188,
    "lng": 45.551154,
    "type": "Place",
    "tags": [],
    "url": "/pl/places-to-go/kakheti/gogrulta/"
  },
  {
    "id": "gremi",
    "name_pl": "Gremi",
    "region": "kakheti",
    "lat": 42.005553,
    "lng": 45.646629,
    "type": "Attraction",
    "tags": [],
    "url": "/pl/places-to-go/kakheti/gremi/"
  },
  {
    "id": "ikalto-monastery",
    "name_pl": "Klasztor Ikalto",
    "region": "kakheti",
    "lat": 41.95866,
    "lng": 45.3767,
    "type": "Attraction",
    "tags": [
      "Kakheti",
      "Historia"
    ],
    "url": "/pl/places-to-go/kakheti/ikalto-monastery/"
  },
  {
    "id": "kvareli",
    "name_pl": "Kvareli",
    "region": "kakheti",
    "lat": 41.952044,
    "lng": 45.81594,
    "type": "Place",
    "tags": [],
    "url": "/pl/places-to-go/kakheti/kvareli/"
  },
  {
    "id": "lagodekhi",
    "name_pl": "Lagodekhi",
    "region": "kakheti",
    "lat": 41.826773,
    "lng": 46.279754,
    "type": "Place",
    "tags": [
      "Kakheti",
      "Natura i Przygoda"
    ],
    "url": "/pl/places-to-go/kakheti/lagodekhi/"
  },
  {
    "id": "nekresi-monastery",
    "name_pl": "Klasztor Nekresi",
    "region": "kakheti",
    "lat": 41.977012,
    "lng": 45.76678,
    "type": "Attraction",
    "tags": [
      "Kakheti",
      "Historia"
    ],
    "url": "/pl/places-to-go/kakheti/nekresi-monastery/"
  },
  {
    "id": "niko-pirosmani-house-museum",
    "name_pl": "Muzeum Domu Niko Pirosmaniego",
    "region": "kakheti",
    "lat": 41.562081,
    "lng": 45.980197,
    "type": "Attraction",
    "tags": [],
    "url": "/pl/places-to-go/kakheti/niko-pirosmani-house-museum/"
  },
  {
    "id": "omalo",
    "name_pl": "Omalo",
    "region": "kakheti",
    "lat": 42.454218,
    "lng": 45.355759,
    "type": "Place",
    "tags": [],
    "url": "/pl/places-to-go/kakheti/omalo/"
  },
  {
    "id": "pankski",
    "name_pl": "Pankski",
    "region": "kakheti",
    "lat": 42.0678,
    "lng": 45.28787,
    "type": "Place",
    "tags": [],
    "url": "/pl/places-to-go/kakheti/pankski/"
  },
  {
    "id": "saidumlo",
    "name_pl": "Saidumlo",
    "region": "kakheti",
    "lat": 42.435036,
    "lng": 45.510826,
    "type": "Attraction",
    "tags": [],
    "url": "/pl/places-to-go/kakheti/saidumlo/"
  },
  {
    "id": "sighnaghi",
    "name_pl": "Sighnaghi",
    "region": "kakheti",
    "lat": 41.618877,
    "lng": 45.92273,
    "type": "Place",
    "tags": [
      "Kakheti",
      "Kuchnia #Kultura i Sztuka #Rodzina"
    ],
    "url": "/pl/places-to-go/kakheti/sighnaghi/"
  },
  {
    "id": "tali-fortress",
    "name_pl": "Twierdza Tali",
    "region": "kakheti",
    "lat": 42.083968,
    "lng": 45.432472,
    "type": "Attraction",
    "tags": [],
    "url": "/pl/places-to-go/kakheti/tali-fortress/"
  },
  {
    "id": "telavi",
    "name_pl": "Telavi",
    "region": "kakheti",
    "lat": 41.917682,
    "lng": 45.473948,
    "type": "Place",
    "tags": [
      "Kakheti",
      "Kuchnia #Rodzina #Historia"
    ],
    "url": "/pl/places-to-go/kakheti/telavi/"
  },
  {
    "id": "tsinandali",
    "name_pl": "Posiadłość Tsinandali",
    "region": "kakheti",
    "lat": 41.894783,
    "lng": 45.57651,
    "type": "Attraction",
    "tags": [
      "Kakheti",
      "Kuchnia #Kultura i Sztuka"
    ],
    "url": "/pl/places-to-go/kakheti/tsinandali/"
  },
  {
    "id": "tsnori",
    "name_pl": "Tsnori",
    "region": "kakheti",
    "lat": 41.61904,
    "lng": 45.978232,
    "type": "Place",
    "tags": [],
    "url": "/pl/places-to-go/kakheti/tsnori/"
  },
  {
    "id": "tusheti-national-park",
    "name_pl": "Park Narodowy Tusheti",
    "region": "kakheti",
    "lat": 42.402479,
    "lng": 45.498283,
    "type": "Attraction",
    "tags": [
      "Krajobrazy Naturalne",
      "Kakheti",
      "Natura i Przygoda"
    ],
    "url": "/pl/places-to-go/kakheti/tusheti-national-park/"
  },
  {
    "id": "vashlovani-national-park",
    "name_pl": "Park Narodowy Vashlovani",
    "region": "kakheti",
    "lat": 41.167479,
    "lng": 46.506084,
    "type": "Attraction",
    "tags": [
      "Krajobrazy Naturalne",
      "Kakheti",
      "Natura i Przygoda"
    ],
    "url": "/pl/places-to-go/kakheti/vashlovani-national-park/"
  },
  {
    "id": "algeti-national-park",
    "name_pl": "Park Narodowy Algeti",
    "region": "kvemo-kartli",
    "lat": 41.64777,
    "lng": 44.39011,
    "type": "Attraction",
    "tags": [
      "Krajobrazy Naturalne",
      "Kvemo Kartli",
      "Natura i Przygoda"
    ],
    "url": "/pl/places-to-go/kvemo-kartli/algeti-national-park/"
  },
  {
    "id": "birtvisi-fortress",
    "name_pl": "Twierdza Birtvisi",
    "region": "kvemo-kartli",
    "lat": 41.53173,
    "lng": 44.413236,
    "type": "Attraction",
    "tags": [
      "Miejsca historyczne i archeologiczne",
      "Kvemo Kartli",
      "Historia"
    ],
    "url": "/pl/places-to-go/kvemo-kartli/birtvisi-fortress/"
  },
  {
    "id": "bolnisi",
    "name_pl": "Bolnisi",
    "region": "kvemo-kartli",
    "lat": 41.45211,
    "lng": 44.5357,
    "type": "Place",
    "tags": [],
    "url": "/pl/places-to-go/kvemo-kartli/bolnisi/"
  },
  {
    "id": "bolnisi-sioni",
    "name_pl": "Katedra Bolnisi Sioni",
    "region": "kvemo-kartli",
    "lat": 41.390244,
    "lng": 44.52471,
    "type": "Attraction",
    "tags": [
      "Miejsca historyczne i archeologiczne",
      "Kvemo Kartli",
      "Historia"
    ],
    "url": "/pl/places-to-go/kvemo-kartli/bolnisi-sioni/"
  },
  {
    "id": "diamond-bridge-in-dashbashi-canyon",
    "name_pl": "Most Diamentowy w Kanionie Dashbashi",
    "region": "kvemo-kartli",
    "lat": 41.594707,
    "lng": 44.123459,
    "type": "Attraction",
    "tags": [
      "Struktury Architektoniczne",
      "Kvemo Kartli",
      "Rodzina #Rozrywka"
    ],
    "url": "/pl/places-to-go/kvemo-kartli/diamond-bridge-in-dashbashi-canyon/"
  },
  {
    "id": "didgori-battle-memorial",
    "name_pl": "Pomnik Bitwy pod Didgori",
    "region": "kvemo-kartli",
    "lat": 41.737068,
    "lng": 44.472068,
    "type": "Attraction",
    "tags": [
      "Kulturalny i Artystyczny"
    ],
    "url": "/pl/places-to-go/kvemo-kartli/didgori-battle-memorial/"
  },
  {
    "id": "dmanisi",
    "name_pl": "Dmanisi",
    "region": "kvemo-kartli",
    "lat": 41.31992,
    "lng": 44.34105,
    "type": "Attraction",
    "tags": [
      "Miejsca historyczne i archeologiczne",
      "Kvemo Kartli",
      "Historia"
    ],
    "url": "/pl/places-to-go/kvemo-kartli/dmanisi/"
  },
  {
    "id": "gardabani",
    "name_pl": "Gardabani",
    "region": "kvemo-kartli",
    "lat": 41.46155,
    "lng": 45.09238,
    "type": "Place",
    "tags": [],
    "url": "/pl/places-to-go/kvemo-kartli/gardabani/"
  },
  {
    "id": "khanchali-lake",
    "name_pl": "Jezioro Khanchali",
    "region": "kvemo-kartli",
    "lat": 41.245965,
    "lng": 43.502515,
    "type": "Attraction",
    "tags": [
      "Krajobrazy Naturalne",
      "Kvemo Kartli",
      "Natura i Przygoda"
    ],
    "url": "/pl/places-to-go/kvemo-kartli/khanchali-lake/"
  },
  {
    "id": "kojori-fortress",
    "name_pl": "Twierdza Kojori",
    "region": "kvemo-kartli",
    "lat": 41.640297,
    "lng": 44.692113,
    "type": "Attraction",
    "tags": [
      "Miejsca historyczne i archeologiczne",
      "Kvemo Kartli",
      "Natura i Przygoda #Historia"
    ],
    "url": "/pl/places-to-go/kvemo-kartli/kojori-fortress/"
  },
  {
    "id": "manglisi",
    "name_pl": "Manglisi",
    "region": "kvemo-kartli",
    "lat": 41.696962,
    "lng": 44.371953,
    "type": "Place",
    "tags": [],
    "url": "/pl/places-to-go/kvemo-kartli/manglisi/"
  },
  {
    "id": "marneuli",
    "name_pl": "Marneuli",
    "region": "kvemo-kartli",
    "lat": 41.487628,
    "lng": 44.798876,
    "type": "Place",
    "tags": [],
    "url": "/pl/places-to-go/kvemo-kartli/marneuli/"
  },
  {
    "id": "martkopi-monastery",
    "name_pl": "Klasztor Martkopi",
    "region": "kvemo-kartli",
    "lat": 41.827532,
    "lng": 44.967769,
    "type": "Attraction",
    "tags": [],
    "url": "/pl/places-to-go/kvemo-kartli/martkopi-monastery/"
  },
  {
    "id": "mravaltskaro-reservoir",
    "name_pl": "Zbiornik Mravaltskaro",
    "region": "kvemo-kartli",
    "lat": 41.539933,
    "lng": 45.24302,
    "type": "Attraction",
    "tags": [
      "Krajobrazy Naturalne",
      "Kvemo Kartli",
      "Natura i Przygoda"
    ],
    "url": "/pl/places-to-go/kvemo-kartli/mravaltskaro-reservoir/"
  },
  {
    "id": "pantiani-lake",
    "name_pl": "Jezioro Pantiani",
    "region": "kvemo-kartli",
    "lat": 41.308083,
    "lng": 44.153295,
    "type": "Attraction",
    "tags": [],
    "url": "/pl/places-to-go/kvemo-kartli/pantiani-lake/"
  },
  {
    "id": "rustavi",
    "name_pl": "Rustavi",
    "region": "kvemo-kartli",
    "lat": 41.56171,
    "lng": 44.98792,
    "type": "Place",
    "tags": [],
    "url": "/pl/places-to-go/kvemo-kartli/rustavi/"
  },
  {
    "id": "shavnabada-monastery",
    "name_pl": "Klasztor Shavnabada",
    "region": "kvemo-kartli",
    "lat": 41.651858,
    "lng": 44.839982,
    "type": "Attraction",
    "tags": [
      "Miejsca religijne",
      "Kvemo Kartli",
      "Historia"
    ],
    "url": "/pl/places-to-go/kvemo-kartli/shavnabada-monastery/"
  },
  {
    "id": "tanie-lake",
    "name_pl": "Jezioro Tanie",
    "region": "kvemo-kartli",
    "lat": 41.416025,
    "lng": 44.20719,
    "type": "Attraction",
    "tags": [],
    "url": "/pl/places-to-go/kvemo-kartli/tanie-lake/"
  },
  {
    "id": "tetritskaro",
    "name_pl": "Tetritskaro",
    "region": "kvemo-kartli",
    "lat": 41.58288,
    "lng": 44.48537,
    "type": "Place",
    "tags": [],
    "url": "/pl/places-to-go/kvemo-kartli/tetritskaro/"
  },
  {
    "id": "tsalka",
    "name_pl": "Tsalka",
    "region": "kvemo-kartli",
    "lat": 41.594383,
    "lng": 44.089478,
    "type": "Place",
    "tags": [],
    "url": "/pl/places-to-go/kvemo-kartli/tsalka/"
  },
  {
    "id": "tsalka-canyon",
    "name_pl": "Kanion Tsalka",
    "region": "kvemo-kartli",
    "lat": 41.59538,
    "lng": 44.122675,
    "type": "Attraction",
    "tags": [],
    "url": "/pl/places-to-go/kvemo-kartli/tsalka-canyon/"
  },
  {
    "id": "ananuri-fortress",
    "name_pl": "Twierdza Ananuri",
    "region": "mtskheta-mtianeti",
    "lat": 42.164735,
    "lng": 44.702129,
    "type": "Attraction",
    "tags": [
      "Mtskheta-Mtianeti",
      "Historia"
    ],
    "url": "/pl/places-to-go/mtskheta-mtianeti/ananuri-fortress/"
  },
  {
    "id": "chaukhi-mountain",
    "name_pl": "Góra Chaukhi",
    "region": "mtskheta-mtianeti",
    "lat": 42.530402,
    "lng": 44.773332,
    "type": "Attraction",
    "tags": [
      "Krajobrazy Naturalne",
      "Mtskheta-Mtianeti",
      "Natura i Przygoda"
    ],
    "url": "/pl/places-to-go/mtskheta-mtianeti/chaukhi-mountain/"
  },
  {
    "id": "cross-pass",
    "name_pl": "Przełęcz Krzyżowa",
    "region": "mtskheta-mtianeti",
    "lat": 42.4991,
    "lng": 44.4575,
    "type": "Attraction",
    "tags": [
      "Krajobrazy Naturalne"
    ],
    "url": "/pl/places-to-go/mtskheta-mtianeti/cross-pass/"
  },
  {
    "id": "gergeti-glacier",
    "name_pl": "Lodowiec Gergeti",
    "region": "mtskheta-mtianeti",
    "lat": 42.6828,
    "lng": 44.5596,
    "type": "Attraction",
    "tags": [],
    "url": "/pl/places-to-go/mtskheta-mtianeti/gergeti-glacier/"
  },
  {
    "id": "gergeti-trinity-church",
    "name_pl": "Kościół Trójcy Świętej w Gergeti",
    "region": "mtskheta-mtianeti",
    "lat": 42.662135,
    "lng": 44.619849,
    "type": "Attraction",
    "tags": [
      "Krajobrazy Naturalne",
      "Mtskheta-Mtianeti",
      "Kultura i Sztuka #Natura i Przygoda"
    ],
    "url": "/pl/places-to-go/mtskheta-mtianeti/gergeti-trinity-church/"
  },
  {
    "id": "gudauri",
    "name_pl": "Gudauri",
    "region": "mtskheta-mtianeti",
    "lat": 42.463834,
    "lng": 44.480288,
    "type": "Place",
    "tags": [
      "Mtskheta-Mtianeti",
      "Natura i Przygoda"
    ],
    "url": "/pl/places-to-go/mtskheta-mtianeti/gudauri/"
  },
  {
    "id": "juta",
    "name_pl": "Juta",
    "region": "mtskheta-mtianeti",
    "lat": 42.567048,
    "lng": 44.757653,
    "type": "Place",
    "tags": [
      "Mtskheta-Mtianeti",
      "Natura i Przygoda"
    ],
    "url": "/pl/places-to-go/mtskheta-mtianeti/juta/"
  },
  {
    "id": "jvari-monastery",
    "name_pl": "Klasztor Jvari",
    "region": "mtskheta-mtianeti",
    "lat": 41.838292,
    "lng": 44.733045,
    "type": "Attraction",
    "tags": [
      "Mtskheta-Mtianeti",
      "Kultura i Sztuka #Historia"
    ],
    "url": "/pl/places-to-go/mtskheta-mtianeti/jvari-monastery/"
  },
  {
    "id": "mount-kazbek",
    "name_pl": "Góra Kazbek",
    "region": "mtskheta-mtianeti",
    "lat": 42.696679,
    "lng": 44.513917,
    "type": "Attraction",
    "tags": [
      "Krajobrazy Naturalne",
      "Mtskheta-Mtianeti",
      "Natura i Przygoda"
    ],
    "url": "/pl/places-to-go/mtskheta-mtianeti/mount-kazbek/"
  },
  {
    "id": "mtskheta",
    "name_pl": "Mtskheta",
    "region": "mtskheta-mtianeti",
    "lat": 41.843735,
    "lng": 44.72003,
    "type": "Place",
    "tags": [
      "Mtskheta-Mtianeti",
      "Kultura i Sztuka #Historia"
    ],
    "url": "/pl/places-to-go/mtskheta-mtianeti/mtskheta/"
  },
  {
    "id": "mukhrani",
    "name_pl": "Mukhrani",
    "region": "mtskheta-mtianeti",
    "lat": 41.932546,
    "lng": 44.574206,
    "type": "Place",
    "tags": [],
    "url": "/pl/places-to-go/mtskheta-mtianeti/mukhrani/"
  },
  {
    "id": "mutso",
    "name_pl": "Mutso",
    "region": "mtskheta-mtianeti",
    "lat": 42.606269,
    "lng": 45.206956,
    "type": "Place",
    "tags": [],
    "url": "/pl/places-to-go/mtskheta-mtianeti/mutso/"
  },
  {
    "id": "natakhtari",
    "name_pl": "Natakhtari",
    "region": "mtskheta-mtianeti",
    "lat": 41.919611,
    "lng": 44.727906,
    "type": "Place",
    "tags": [],
    "url": "/pl/places-to-go/mtskheta-mtianeti/natakhtari/"
  },
  {
    "id": "pasanauri",
    "name_pl": "Pasanauri",
    "region": "mtskheta-mtianeti",
    "lat": 42.351661,
    "lng": 44.689283,
    "type": "Place",
    "tags": [
      "Mtskheta-Mtianeti",
      "Kuchnia"
    ],
    "url": "/pl/places-to-go/mtskheta-mtianeti/pasanauri/"
  },
  {
    "id": "roshka",
    "name_pl": "Roshka",
    "region": "mtskheta-mtianeti",
    "lat": 42.482721,
    "lng": 44.92828,
    "type": "Place",
    "tags": [],
    "url": "/pl/places-to-go/mtskheta-mtianeti/roshka/"
  },
  {
    "id": "russia-georgia-friendship",
    "name_pl": "Pomnik Przyjaźni Rosji i Gruzji",
    "region": "mtskheta-mtianeti",
    "lat": 42.492058,
    "lng": 44.452639,
    "type": "Attraction",
    "tags": [],
    "url": "/pl/places-to-go/mtskheta-mtianeti/russia-georgia-friendship/"
  },
  {
    "id": "shatili",
    "name_pl": "Szatili",
    "region": "mtskheta-mtianeti",
    "lat": 42.658299,
    "lng": 45.154592,
    "type": "Place",
    "tags": [],
    "url": "/pl/places-to-go/mtskheta-mtianeti/shatili/"
  },
  {
    "id": "shuamta",
    "name_pl": "Stara i Nowa Shuamta",
    "region": "mtskheta-mtianeti",
    "lat": 41.905498,
    "lng": 45.39209,
    "type": "Attraction",
    "tags": [],
    "url": "/pl/places-to-go/mtskheta-mtianeti/shuamta/"
  },
  {
    "id": "shuamta-monastery",
    "name_pl": "Klasztor Shuamta",
    "region": "mtskheta-mtianeti",
    "lat": 41.912321,
    "lng": 45.382127,
    "type": "Attraction",
    "tags": [],
    "url": "/pl/places-to-go/mtskheta-mtianeti/shuamta-monastery/"
  },
  {
    "id": "sno",
    "name_pl": "Sno",
    "region": "mtskheta-mtianeti",
    "lat": 42.604732,
    "lng": 44.637601,
    "type": "Place",
    "tags": [],
    "url": "/pl/places-to-go/mtskheta-mtianeti/sno/"
  },
  {
    "id": "stepantsminda",
    "name_pl": "Stepancminda",
    "region": "mtskheta-mtianeti",
    "lat": 42.65794,
    "lng": 44.640589,
    "type": "Place",
    "tags": [],
    "url": "/pl/places-to-go/mtskheta-mtianeti/stepantsminda/"
  },
  {
    "id": "svetitskhoveli",
    "name_pl": "Katedra Svetitskhoveli",
    "region": "mtskheta-mtianeti",
    "lat": 41.842192,
    "lng": 44.720489,
    "type": "Attraction",
    "tags": [
      "Mtskheta-Mtianeti",
      "Kultura i Sztuka #Historia"
    ],
    "url": "/pl/places-to-go/mtskheta-mtianeti/svetitskhoveli/"
  },
  {
    "id": "truso-valley",
    "name_pl": "Dolina Truso",
    "region": "mtskheta-mtianeti",
    "lat": 42.604163,
    "lng": 44.374515,
    "type": "Attraction",
    "tags": [
      "Krajobrazy Naturalne",
      "Mtskheta-Mtianeti",
      "Natura i Przygoda"
    ],
    "url": "/pl/places-to-go/mtskheta-mtianeti/truso-valley/"
  },
  {
    "id": "bareti-lake",
    "name_pl": "Jezioro Bareti",
    "region": "racha-lechkhumi",
    "lat": 42.382671,
    "lng": 43.519826,
    "type": "Attraction",
    "tags": [],
    "url": "/pl/places-to-go/racha-lechkhumi/bareti-lake/"
  },
  {
    "id": "kirovakani",
    "name_pl": "Kirovakani",
    "region": "racha-lechkhumi",
    "lat": 42.408023,
    "lng": 43.513832,
    "type": "Place",
    "tags": [],
    "url": "/pl/places-to-go/racha-lechkhumi/kirovakani/"
  },
  {
    "id": "koruldashi-lakes",
    "name_pl": "Jeziora Koruldashi",
    "region": "racha-lechkhumi",
    "lat": 42.875424,
    "lng": 43.413218,
    "type": "Attraction",
    "tags": [],
    "url": "/pl/places-to-go/racha-lechkhumi/koruldashi-lakes/"
  },
  {
    "id": "lakhami-pass",
    "name_pl": "Przełęcz Lakhami",
    "region": "racha-lechkhumi",
    "lat": 42.378178,
    "lng": 42.801456,
    "type": "Attraction",
    "tags": [],
    "url": "/pl/places-to-go/racha-lechkhumi/lakhami-pass/"
  },
  {
    "id": "lentekhi",
    "name_pl": "Lentekhi",
    "region": "racha-lechkhumi",
    "lat": 42.776001,
    "lng": 42.731696,
    "type": "Place",
    "tags": [
      "Racha-Lechkhumi"
    ],
    "url": "/pl/places-to-go/racha-lechkhumi/lentekhi/"
  },
  {
    "id": "adishi",
    "name_pl": "Adishi",
    "region": "samegrelo-zemo-svaneti",
    "lat": 43.053019,
    "lng": 42.979668,
    "type": "Place",
    "tags": [],
    "url": "/pl/places-to-go/samegrelo-zemo-svaneti/adishi/"
  },
  {
    "id": "becho",
    "name_pl": "Becho",
    "region": "samegrelo-zemo-svaneti",
    "lat": 43.049379,
    "lng": 42.585327,
    "type": "Place",
    "tags": [],
    "url": "/pl/places-to-go/samegrelo-zemo-svaneti/becho/"
  },
  {
    "id": "chkhorotsku",
    "name_pl": "Chkhorotsku",
    "region": "samegrelo-zemo-svaneti",
    "lat": 42.505927,
    "lng": 42.099297,
    "type": "Place",
    "tags": [],
    "url": "/pl/places-to-go/samegrelo-zemo-svaneti/chkhorotsku/"
  },
  {
    "id": "dadiani-palace",
    "name_pl": "Pałac Dadiani",
    "region": "samegrelo-zemo-svaneti",
    "lat": 42.511985,
    "lng": 41.873782,
    "type": "Attraction",
    "tags": [
      "Kulturalny i Artystyczny"
    ],
    "url": "/pl/places-to-go/samegrelo-zemo-svaneti/zugdidi/dadiani-palace/"
  },
  {
    "id": "enguri-dam",
    "name_pl": "Tama Enguri",
    "region": "samegrelo-zemo-svaneti",
    "lat": 43.01929,
    "lng": 42.03899,
    "type": "Attraction",
    "tags": [
      "Struktury Architektoniczne",
      "Samegrelo-Zemo Svaneti",
      "Natura i Przygoda"
    ],
    "url": "/pl/places-to-go/samegrelo-zemo-svaneti/enguri-dam/"
  },
  {
    "id": "etseri",
    "name_pl": "Etseri",
    "region": "samegrelo-zemo-svaneti",
    "lat": 43.0178,
    "lng": 42.41919,
    "type": "Place",
    "tags": [],
    "url": "/pl/places-to-go/samegrelo-zemo-svaneti/etseri/"
  },
  {
    "id": "kalalish-lake",
    "name_pl": "Jezioro Kalalish",
    "region": "samegrelo-zemo-svaneti",
    "lat": 42.795534,
    "lng": 42.251701,
    "type": "Attraction",
    "tags": [],
    "url": "/pl/places-to-go/samegrelo-zemo-svaneti/kalalish-lake/"
  },
  {
    "id": "kolkheti-national-park",
    "name_pl": "Park Narodowy Kolchidy",
    "region": "samegrelo-zemo-svaneti",
    "lat": 42.153965,
    "lng": 41.763935,
    "type": "Attraction",
    "tags": [
      "Krajobrazy Naturalne",
      "Samegrelo-Zemo Svaneti",
      "Natura i Przygoda"
    ],
    "url": "/pl/places-to-go/samegrelo-zemo-svaneti/kolkheti-national-park/"
  },
  {
    "id": "lake-meziri",
    "name_pl": "Jezioro Meziri",
    "region": "samegrelo-zemo-svaneti",
    "lat": 43.057766,
    "lng": 42.584574,
    "type": "Attraction",
    "tags": [],
    "url": "/pl/places-to-go/samegrelo-zemo-svaneti/lake-meziri/"
  },
  {
    "id": "latali",
    "name_pl": "Latali",
    "region": "samegrelo-zemo-svaneti",
    "lat": 43.041479,
    "lng": 42.650558,
    "type": "Place",
    "tags": [],
    "url": "/pl/places-to-go/samegrelo-zemo-svaneti/latali/"
  },
  {
    "id": "martvili-canyon",
    "name_pl": "Kanion Martwili",
    "region": "samegrelo-zemo-svaneti",
    "lat": 42.456838,
    "lng": 42.375723,
    "type": "Attraction",
    "tags": [
      "Krajobrazy Naturalne"
    ],
    "url": "/pl/places-to-go/samegrelo-zemo-svaneti/martvili-canyon/"
  },
  {
    "id": "mestia",
    "name_pl": "Mestia",
    "region": "samegrelo-zemo-svaneti",
    "lat": 43.044789,
    "lng": 42.728249,
    "type": "Place",
    "tags": [],
    "url": "/pl/places-to-go/samegrelo-zemo-svaneti/mestia/"
  },
  {
    "id": "mount-shkhara",
    "name_pl": "Góra Szkhara",
    "region": "samegrelo-zemo-svaneti",
    "lat": 42.99979,
    "lng": 43.109027,
    "type": "Attraction",
    "tags": [
      "Krajobrazy Naturalne",
      "Samegrelo-Zemo Svaneti",
      "Natura i Przygoda"
    ],
    "url": "/pl/places-to-go/samegrelo-zemo-svaneti/mount-shkhara/"
  },
  {
    "id": "mount-tetnuldi",
    "name_pl": "Góra Tetnuldi",
    "region": "samegrelo-zemo-svaneti",
    "lat": 43.031263,
    "lng": 42.994922,
    "type": "Attraction",
    "tags": [
      "Krajobrazy Naturalne",
      "Samegrelo-Zemo Svaneti",
      "Natura i Przygoda"
    ],
    "url": "/pl/places-to-go/samegrelo-zemo-svaneti/mount-tetnuldi/"
  },
  {
    "id": "nokalakevi",
    "name_pl": "Nokalakevi",
    "region": "samegrelo-zemo-svaneti",
    "lat": 42.374725,
    "lng": 42.000145,
    "type": "Attraction",
    "tags": [
      "Miejsca historyczne i archeologiczne"
    ],
    "url": "/pl/places-to-go/samegrelo-zemo-svaneti/nokalakevi/"
  },
  {
    "id": "poti",
    "name_pl": "Poti",
    "region": "samegrelo-zemo-svaneti",
    "lat": 42.142308,
    "lng": 41.673737,
    "type": "Place",
    "tags": [],
    "url": "/pl/places-to-go/samegrelo-zemo-svaneti/poti/"
  },
  {
    "id": "senaki",
    "name_pl": "Senaki",
    "region": "samegrelo-zemo-svaneti",
    "lat": 42.069,
    "lng": 42.069,
    "type": "Place",
    "tags": [],
    "url": "/pl/places-to-go/samegrelo-zemo-svaneti/senaki/"
  },
  {
    "id": "shdugra-waterfall",
    "name_pl": "Wodospad Shdugra",
    "region": "samegrelo-zemo-svaneti",
    "lat": 43.129062,
    "lng": 42.599728,
    "type": "Attraction",
    "tags": [
      "Krajobrazy Naturalne",
      "Samegrelo-Zemo Svaneti",
      "Natura i Przygoda"
    ],
    "url": "/pl/places-to-go/samegrelo-zemo-svaneti/shdugra-waterfall/"
  },
  {
    "id": "tower-of-love",
    "name_pl": "Wieża Miłości",
    "region": "samegrelo-zemo-svaneti",
    "lat": 43.000264,
    "lng": 42.834593,
    "type": "Attraction",
    "tags": [],
    "url": "/pl/places-to-go/samegrelo-zemo-svaneti/tower-of-love/"
  },
  {
    "id": "tsalenjikha",
    "name_pl": "Tsalenjikha",
    "region": "samegrelo-zemo-svaneti",
    "lat": 42.612,
    "lng": 42.06,
    "type": "Place",
    "tags": [],
    "url": "/pl/places-to-go/samegrelo-zemo-svaneti/tsalenjikha/"
  },
  {
    "id": "ushba",
    "name_pl": "Góra Ushba",
    "region": "samegrelo-zemo-svaneti",
    "lat": 43.124327,
    "lng": 42.660166,
    "type": "Attraction",
    "tags": [
      "Krajobrazy Naturalne",
      "Samegrelo-Zemo Svaneti",
      "Natura i Przygoda"
    ],
    "url": "/pl/places-to-go/samegrelo-zemo-svaneti/ushba/"
  },
  {
    "id": "ushguli",
    "name_pl": "Ushguli",
    "region": "samegrelo-zemo-svaneti",
    "lat": 42.915509,
    "lng": 43.009669,
    "type": "Place",
    "tags": [],
    "url": "/pl/places-to-go/samegrelo-zemo-svaneti/ushguli/"
  },
  {
    "id": "zugdidi",
    "name_pl": "Zugdidi",
    "region": "samegrelo-zemo-svaneti",
    "lat": 42.509,
    "lng": 41.871,
    "type": "Place",
    "tags": [],
    "url": "/pl/places-to-go/samegrelo-zemo-svaneti/zugdidi/"
  },
  {
    "id": "abastumani",
    "name_pl": "Abastumani",
    "region": "samtskhe-javakheti",
    "lat": 41.753833,
    "lng": 42.832078,
    "type": "Place",
    "tags": [],
    "url": "/pl/places-to-go/samtskhe-javakheti/abastumani/"
  },
  {
    "id": "akhalkalaki",
    "name_pl": "Akhalkalaki",
    "region": "samtskhe-javakheti",
    "lat": 41.4021,
    "lng": 43.487188,
    "type": "Place",
    "tags": [],
    "url": "/pl/places-to-go/samtskhe-javakheti/akhalkalaki/"
  },
  {
    "id": "akhaltsikhe",
    "name_pl": "Akhaltsikhe",
    "region": "samtskhe-javakheti",
    "lat": 41.636389,
    "lng": 42.974444,
    "type": "Place",
    "tags": [],
    "url": "/pl/places-to-go/samtskhe-javakheti/akhaltsikhe/"
  },
  {
    "id": "bakuriani",
    "name_pl": "Bakuriani",
    "region": "samtskhe-javakheti",
    "lat": 41.7517,
    "lng": 43.5248,
    "type": "Place",
    "tags": [
      "Samtskhe-Javakheti",
      "Natura i Przygoda"
    ],
    "url": "/pl/places-to-go/samtskhe-javakheti/bakuriani/"
  },
  {
    "id": "borjomi",
    "name_pl": "Borjomi",
    "region": "samtskhe-javakheti",
    "lat": 41.84123,
    "lng": 43.38809,
    "type": "Place",
    "tags": [
      "Samtskhe-Javakheti",
      "Natura i Przygoda #Rodzina"
    ],
    "url": "/pl/places-to-go/samtskhe-javakheti/borjomi/"
  },
  {
    "id": "borjomi-central-park",
    "name_pl": "Park Centralny Borjomi",
    "region": "samtskhe-javakheti",
    "lat": 41.835295,
    "lng": 43.39501,
    "type": "Attraction",
    "tags": [
      "Krajobrazy Naturalne",
      "Samtskhe-Javakheti",
      "Rodzina"
    ],
    "url": "/pl/places-to-go/samtskhe-javakheti/borjomi/borjomi-central-park/"
  },
  {
    "id": "borjomi-kharagauli-national-park",
    "name_pl": "Park Narodowy Borjomi-Kharagauli",
    "region": "samtskhe-javakheti",
    "lat": 41.859065,
    "lng": 43.221611,
    "type": "Attraction",
    "tags": [
      "Krajobrazy Naturalne",
      "Samtskhe-Javakheti",
      "Natura i Przygoda #Rodzina"
    ],
    "url": "/pl/places-to-go/samtskhe-javakheti/borjomi-kharagauli-national-park/"
  },
  {
    "id": "green-monastery",
    "name_pl": "Zielony Klasztor",
    "region": "samtskhe-javakheti",
    "lat": 41.79256,
    "lng": 43.43257,
    "type": "Attraction",
    "tags": [
      "Miejsca religijne",
      "Samtskhe-Javakheti",
      "Historia"
    ],
    "url": "/pl/places-to-go/samtskhe-javakheti/green-monastery/"
  },
  {
    "id": "khertvisi-fortress",
    "name_pl": "Twierdza Khertvisi",
    "region": "samtskhe-javakheti",
    "lat": 41.477,
    "lng": 43.2897,
    "type": "Attraction",
    "tags": [
      "Miejsca historyczne i archeologiczne",
      "Samtskhe-Javakheti",
      "Historia"
    ],
    "url": "/pl/places-to-go/samtskhe-javakheti/khertvisi-fortress/"
  },
  {
    "id": "ninotsminda",
    "name_pl": "Ninotsminda",
    "region": "samtskhe-javakheti",
    "lat": 41.266784,
    "lng": 43.587318,
    "type": "Place",
    "tags": [],
    "url": "/pl/places-to-go/samtskhe-javakheti/ninotsminda/"
  },
  {
    "id": "plateau-wheel-borjomi",
    "name_pl": "Koło na Płaskowyżu Borjomi",
    "region": "samtskhe-javakheti",
    "lat": 41.835295,
    "lng": 43.39501,
    "type": "Attraction",
    "tags": [],
    "url": "/pl/places-to-go/samtskhe-javakheti/borjomi/plateau-wheel-borjomi/"
  },
  {
    "id": "poka-st-nino-monastery",
    "name_pl": "Klasztor Poka Świętej Nino",
    "region": "samtskhe-javakheti",
    "lat": 41.405276,
    "lng": 43.801479,
    "type": "Attraction",
    "tags": [],
    "url": "/pl/places-to-go/samtskhe-javakheti/poka-st-nino-monastery/"
  },
  {
    "id": "rabati-fortress",
    "name_pl": "Twierdza Rabati",
    "region": "samtskhe-javakheti",
    "lat": 41.633564,
    "lng": 42.979453,
    "type": "Attraction",
    "tags": [
      "Miejsca historyczne i archeologiczne",
      "Samtskhe-Javakheti",
      "Kultura i Sztuka #Historia"
    ],
    "url": "/pl/places-to-go/samtskhe-javakheti/rabati-fortress/"
  },
  {
    "id": "sadakhlo",
    "name_pl": "Sadakhlo",
    "region": "samtskhe-javakheti",
    "lat": 41.147133,
    "lng": 44.288833,
    "type": "Place",
    "tags": [],
    "url": "/pl/places-to-go/samtskhe-javakheti/sadakhlo/"
  },
  {
    "id": "sapara-monastery",
    "name_pl": "Klasztor Sapara",
    "region": "samtskhe-javakheti",
    "lat": 41.594694,
    "lng": 43.036773,
    "type": "Attraction",
    "tags": [
      "Miejsca religijne"
    ],
    "url": "/pl/places-to-go/samtskhe-javakheti/sapara-monastery/"
  },
  {
    "id": "tabatskuri-lake",
    "name_pl": "Jezioro Tabatskuri",
    "region": "samtskhe-javakheti",
    "lat": 41.70694,
    "lng": 43.621393,
    "type": "Attraction",
    "tags": [
      "Krajobrazy Naturalne",
      "Samtskhe-Javakheti",
      "Natura i Przygoda"
    ],
    "url": "/pl/places-to-go/samtskhe-javakheti/tabatskuri-lake/"
  },
  {
    "id": "tmogvi-fortress",
    "name_pl": "Twierdza Tmogvi",
    "region": "samtskhe-javakheti",
    "lat": 41.486048,
    "lng": 43.49764,
    "type": "Attraction",
    "tags": [
      "Miejsca historyczne i archeologiczne",
      "Samtskhe-Javakheti",
      "Historia"
    ],
    "url": "/pl/places-to-go/samtskhe-javakheti/tmogvi-fortress/"
  },
  {
    "id": "trialeti-range",
    "name_pl": "Pasmo Trialeti",
    "region": "samtskhe-javakheti",
    "lat": 41.693834,
    "lng": 43.537678,
    "type": "Attraction",
    "tags": [
      "Krajobrazy Naturalne",
      "Samtskhe-Javakheti",
      "Natura i Przygoda"
    ],
    "url": "/pl/places-to-go/samtskhe-javakheti/trialeti-range/"
  },
  {
    "id": "vale",
    "name_pl": "Vale",
    "region": "samtskhe-javakheti",
    "lat": 41.590033,
    "lng": 42.923,
    "type": "Place",
    "tags": [],
    "url": "/pl/places-to-go/samtskhe-javakheti/vale/"
  },
  {
    "id": "vardzia",
    "name_pl": "Wardzia",
    "region": "samtskhe-javakheti",
    "lat": 41.381167,
    "lng": 43.2844,
    "type": "Attraction",
    "tags": [
      "Miejsca historyczne i archeologiczne",
      "Samtskhe-Javakheti",
      "Kultura i Sztuka #Historia"
    ],
    "url": "/pl/places-to-go/samtskhe-javakheti/vardzia/"
  },
  {
    "id": "zekari-pass",
    "name_pl": "Przełęcz Zekari",
    "region": "samtskhe-javakheti",
    "lat": 41.825938,
    "lng": 42.856179,
    "type": "Attraction",
    "tags": [],
    "url": "/pl/places-to-go/samtskhe-javakheti/zekari-pass/"
  },
  {
    "id": "ateni-sioni",
    "name_pl": "Katedra Ateni Sioni",
    "region": "shida-kartli",
    "lat": 41.91183,
    "lng": 44.07731,
    "type": "Attraction",
    "tags": [
      "Miejsca religijne",
      "Shida Kartli",
      "Historia"
    ],
    "url": "/pl/places-to-go/shida-kartli/ateni-sioni/"
  },
  {
    "id": "bateti-lake",
    "name_pl": "Jezioro Bateti",
    "region": "shida-kartli",
    "lat": 41.896293,
    "lng": 43.76785,
    "type": "Attraction",
    "tags": [],
    "url": "/pl/places-to-go/shida-kartli/bateti-lake/"
  },
  {
    "id": "drisi-fortress",
    "name_pl": "Twierdza Drisi",
    "region": "shida-kartli",
    "lat": 41.864709,
    "lng": 44.275494,
    "type": "Attraction",
    "tags": [],
    "url": "/pl/places-to-go/shida-kartli/drisi-fortress/"
  },
  {
    "id": "dzama-valley",
    "name_pl": "Dolina Dzama",
    "region": "shida-kartli",
    "lat": 41.962335,
    "lng": 43.77402,
    "type": "Attraction",
    "tags": [],
    "url": "/pl/places-to-go/shida-kartli/dzama-valley/"
  },
  {
    "id": "gori",
    "name_pl": "Gori",
    "region": "shida-kartli",
    "lat": 41.986053,
    "lng": 44.109808,
    "type": "Place",
    "tags": [],
    "url": "/pl/places-to-go/shida-kartli/gori/"
  },
  {
    "id": "gori-fortress",
    "name_pl": "Twierdza Gori",
    "region": "shida-kartli",
    "lat": 41.98638,
    "lng": 44.1117,
    "type": "Attraction",
    "tags": [
      "Miejsca historyczne i archeologiczne",
      "Shida Kartli",
      "Historia"
    ],
    "url": "/pl/places-to-go/shida-kartli/gori-fortress/"
  },
  {
    "id": "kareli",
    "name_pl": "Kareli",
    "region": "shida-kartli",
    "lat": 41.93538,
    "lng": 43.92796,
    "type": "Place",
    "tags": [],
    "url": "/pl/places-to-go/shida-kartli/kareli/"
  },
  {
    "id": "kaspi",
    "name_pl": "Kaspi",
    "region": "shida-kartli",
    "lat": 41.921107,
    "lng": 44.418615,
    "type": "Place",
    "tags": [],
    "url": "/pl/places-to-go/shida-kartli/kaspi/"
  },
  {
    "id": "khashuri",
    "name_pl": "Khashuri",
    "region": "shida-kartli",
    "lat": 41.98594,
    "lng": 43.595644,
    "type": "Place",
    "tags": [
      "Shida Kartli",
      "Historia"
    ],
    "url": "/pl/places-to-go/shida-kartli/khashuri/"
  },
  {
    "id": "khidistavi",
    "name_pl": "Khidistavi",
    "region": "shida-kartli",
    "lat": 41.961522,
    "lng": 44.128237,
    "type": "Place",
    "tags": [],
    "url": "/pl/places-to-go/shida-kartli/khidistavi/"
  },
  {
    "id": "memorial-of-georgian-warriors",
    "name_pl": "Pomnik Gruzińskich Wojowników",
    "region": "shida-kartli",
    "lat": 41.986053,
    "lng": 44.109808,
    "type": "Attraction",
    "tags": [],
    "url": "/pl/places-to-go/shida-kartli/gori/memorial-of-georgian-warriors/"
  },
  {
    "id": "queen-tamar-bridge-in-rkoni",
    "name_pl": "Most Królowej Tamary w Rkoni",
    "region": "shida-kartli",
    "lat": 41.805954,
    "lng": 44.223074,
    "type": "Attraction",
    "tags": [
      "Shida Kartli",
      "Historia"
    ],
    "url": "/pl/places-to-go/shida-kartli/queen-tamar-bridge-in-rkoni/"
  },
  {
    "id": "rikoti-pass",
    "name_pl": "Przełęcz Rikoti",
    "region": "shida-kartli",
    "lat": 42.08866,
    "lng": 43.48346,
    "type": "Attraction",
    "tags": [],
    "url": "/pl/places-to-go/shida-kartli/rikoti-pass/"
  },
  {
    "id": "rkoni-monastery",
    "name_pl": "Klasztor Rkoni",
    "region": "shida-kartli",
    "lat": 41.807621,
    "lng": 44.224872,
    "type": "Attraction",
    "tags": [
      "Miejsca religijne",
      "Shida Kartli",
      "Religia"
    ],
    "url": "/pl/places-to-go/shida-kartli/rkoni-monastery/"
  },
  {
    "id": "samtavisi-cathedral",
    "name_pl": "Katedra Samtavisi",
    "region": "shida-kartli",
    "lat": 41.89629,
    "lng": 44.19141,
    "type": "Attraction",
    "tags": [
      "Miejsca religijne",
      "Shida Kartli",
      "Historia"
    ],
    "url": "/pl/places-to-go/shida-kartli/samtavisi-cathedral/"
  },
  {
    "id": "stalin-museum",
    "name_pl": "Muzeum Stalina",
    "region": "shida-kartli",
    "lat": 41.987284,
    "lng": 44.11365,
    "type": "Attraction",
    "tags": [
      "Kulturalny i Artystyczny"
    ],
    "url": "/pl/places-to-go/shida-kartli/gori/stalin-museum/"
  },
  {
    "id": "surami-fortress",
    "name_pl": "Twierdza Surami",
    "region": "shida-kartli",
    "lat": 42.010825,
    "lng": 43.560585,
    "type": "Attraction",
    "tags": [
      "Miejsca historyczne i archeologiczne",
      "Shida Kartli",
      "Historia"
    ],
    "url": "/pl/places-to-go/shida-kartli/surami-fortress/"
  },
  {
    "id": "uplistsikhe",
    "name_pl": "Uplistsikhe",
    "region": "shida-kartli",
    "lat": 41.966583,
    "lng": 44.206433,
    "type": "Attraction",
    "tags": [
      "Miejsca historyczne i archeologiczne",
      "Shida Kartli",
      "Historia"
    ],
    "url": "/pl/places-to-go/shida-kartli/uplistsikhe/"
  },
  {
    "id": "abanotubani",
    "name_pl": "Abanotubani",
    "region": "tbilisi",
    "lat": 41.6884,
    "lng": 44.8102,
    "type": "Place",
    "tags": [
      "Tbilisi",
      "Kultura i Sztuka"
    ],
    "url": "/pl/places-to-go/tbilisi/abanotubani/"
  },
  {
    "id": "botanical-garden",
    "name_pl": "Ogród Botaniczny",
    "region": "tbilisi",
    "lat": 41.6875,
    "lng": 44.8158,
    "type": "Attraction",
    "tags": [
      "Krajobrazy Naturalne",
      "Tbilisi",
      "Natura i Przygoda"
    ],
    "url": "/pl/places-to-go/tbilisi/botanical-garden/"
  },
  {
    "id": "bridge-of-peace",
    "name_pl": "Most Pokoju",
    "region": "tbilisi",
    "lat": 41.69243,
    "lng": 44.808,
    "type": "Attraction",
    "tags": [
      "Struktury Architektoniczne",
      "Tbilisi",
      "Kultura i Sztuka"
    ],
    "url": "/pl/places-to-go/tbilisi/bridge-of-peace/"
  },
  {
    "id": "chronicle-of-georgia",
    "name_pl": "Kronika Gruzji",
    "region": "tbilisi",
    "lat": 41.770572,
    "lng": 44.810437,
    "type": "Attraction",
    "tags": [
      "Tbilisi",
      "Kultura i Sztuka #Historia"
    ],
    "url": "/pl/places-to-go/tbilisi/chronicle-of-georgia/"
  },
  {
    "id": "fabrika",
    "name_pl": "Fabrika Tbilisi",
    "region": "tbilisi",
    "lat": 41.709406,
    "lng": 44.802685,
    "type": "Attraction",
    "tags": [
      "Tbilisi",
      "Kultura i Sztuka #Rozrywka"
    ],
    "url": "/pl/places-to-go/tbilisi/fabrika/"
  },
  {
    "id": "freedom-square",
    "name_pl": "Plac Wolności",
    "region": "tbilisi",
    "lat": 41.693576,
    "lng": 44.801355,
    "type": "Attraction",
    "tags": [],
    "url": "/pl/places-to-go/tbilisi/freedom-square/"
  },
  {
    "id": "kashveti-church",
    "name_pl": "Kościół Kashveti",
    "region": "tbilisi",
    "lat": 41.697981,
    "lng": 44.79924,
    "type": "Attraction",
    "tags": [],
    "url": "/pl/places-to-go/tbilisi/kashveti-church/"
  },
  {
    "id": "lado-gudiashvili-square",
    "name_pl": "Plac Lado Gudiashviliego",
    "region": "tbilisi",
    "lat": 41.695285,
    "lng": 44.80675,
    "type": "Attraction",
    "tags": [],
    "url": "/pl/places-to-go/tbilisi/lado-gudiashvili-square/"
  },
  {
    "id": "meidan-bazaar",
    "name_pl": "Bazar Meidan",
    "region": "tbilisi",
    "lat": 41.689693,
    "lng": 44.809112,
    "type": "Attraction",
    "tags": [
      "Rekreacja i rozrywka",
      "Tbilisi",
      "Zakupy"
    ],
    "url": "/pl/places-to-go/tbilisi/meidan-bazaar/"
  },
  {
    "id": "mtatsminda-park",
    "name_pl": "Park Mtatsminda",
    "region": "tbilisi",
    "lat": 41.6934,
    "lng": 44.7806,
    "type": "Attraction",
    "tags": [
      "Rekreacja i rozrywka",
      "Tbilisi",
      "Rodzina"
    ],
    "url": "/pl/places-to-go/tbilisi/mtatsminda-park/"
  },
  {
    "id": "narikala-fortress",
    "name_pl": "Twierdza Narikala",
    "region": "tbilisi",
    "lat": 41.687788,
    "lng": 44.808889,
    "type": "Attraction",
    "tags": [
      "Miejsca historyczne i archeologiczne",
      "Tbilisi",
      "Kultura i Sztuka #Historia"
    ],
    "url": "/pl/places-to-go/tbilisi/narikala-fortress/"
  },
  {
    "id": "national-museum",
    "name_pl": "Muzeum Narodowe",
    "region": "tbilisi",
    "lat": 41.6971,
    "lng": 44.8008,
    "type": "Attraction",
    "tags": [
      "Kulturalny i Artystyczny",
      "Tbilisi",
      "Kultura i Sztuka"
    ],
    "url": "/pl/places-to-go/tbilisi/national-museum/"
  },
  {
    "id": "sameba-cathedral",
    "name_pl": "Katedra Sameba",
    "region": "tbilisi",
    "lat": 41.69756,
    "lng": 44.816509,
    "type": "Attraction",
    "tags": [
      "Miejsca religijne",
      "Tbilisi",
      "Kultura i Sztuka"
    ],
    "url": "/pl/places-to-go/tbilisi/sameba-cathedral/"
  },
  {
    "id": "sioni-cathedral",
    "name_pl": "Katedra Sioni",
    "region": "tbilisi",
    "lat": 41.691382,
    "lng": 44.807505,
    "type": "Attraction",
    "tags": [
      "Tbilisi",
      "Kultura i Sztuka #Historia"
    ],
    "url": "/pl/places-to-go/tbilisi/sioni-cathedral/"
  },
  {
    "id": "sulfur-baths",
    "name_pl": "Kąpiele Siarkowe",
    "region": "tbilisi",
    "lat": 41.68806,
    "lng": 44.810974,
    "type": "Attraction",
    "tags": [
      "Tbilisi",
      "Spa i Wellness"
    ],
    "url": "/pl/places-to-go/tbilisi/sulfur-baths/"
  },
  {
    "id": "tbilisi",
    "name_pl": "Tbilisi",
    "region": "tbilisi",
    "lat": 41.71667,
    "lng": 44.78333,
    "type": "Place",
    "tags": [],
    "url": "/pl/places-to-go/tbilisi/"
  },
  {
    "id": "tsar-baths",
    "name_pl": "Łaźnie Carskie",
    "region": "tbilisi",
    "lat": 41.6885,
    "lng": 44.8112,
    "type": "Attraction",
    "tags": [],
    "url": "/pl/places-to-go/tbilisi/tsar-baths/"
  },
  {
    "id": "tsvermagala-park",
    "name_pl": "Park Tsvermagala",
    "region": "tbilisi",
    "lat": 41.6968,
    "lng": 44.7839,
    "type": "Attraction",
    "tags": [],
    "url": "/pl/places-to-go/tbilisi/tsvermagala-park/"
  }
]